class,placeId,score,name_kor,name_eng,latitude,longitude
attractions,10020510,5.0,한성백제문화제,Hanseong Baekje Cultural Festival,37.520847,127.11603
attractions,10020529,4.142857142857143,서울불꽃축제,Seoul International Fireworks Festival,37.528095,126.92417
attractions,10020530,4.681818181818182,서울빛초롱축제,Seoul Lantern Festival,37.569157,127.00403
attractions,10130671,5.0,학아재미술관,Hagajae Museum,37.577007,126.9904
attractions,10183192,4.435897435897437,석촌호수,Seokchon Lake,37.508343,127.1
attractions,10288072,4.3,디뮤지엄,D Museum,37.53687,127.01137
attractions,1046419,4.2838801711840215,청계천,Cheonggyecheon Stream,37.568733,126.98553
attractions,10467804,4.454545454545454,K-Style Hub,K-Style Hub,37.56904,126.981636
attractions,10479243,4.888888888888889,Baek In-Je House Museum,Baek In-Je House Museum,37.580803,126.984085
attractions,10483406,3.6666666666666665,헬로에이피엠,Hello APM,37.557457,126.95412
attractions,1052311,4.162162162162162,화폐 금융 박물관,Bank of Korea Museum,37.562363,126.98146
attractions,10543181,4.5,윤동주 문학관,Yoon Dongju Literary Museum,37.592113,126.96732
attractions,10677413,4.25,남산야외식물원,Namsan Outdoor Botanical Garden,37.54252,126.9963
attractions,10720451,3.727272727272727,종각젊음의거리,Jonggak Avenue of Youth,37.569542,126.985695
attractions,10794564,3.7,러브뮤지엄,Love Museum,37.553482,126.92165
attractions,10897845,3.7142857142857135,북악팔각정,Bugak Palgakjeong Pavilion,37.601746,126.98039
attractions,1163226,3.7647058823529416,중부시장,Jungbu Market,37.566235,127.00033
attractions,1169465,4.1630859375,N 서울 타워,N Seoul Tower,37.551388,126.988106
attractions,1176552,4.166666666666667,허준 박물관,Heojun Museum,37.567684,126.85114
attractions,11850082,4.6,북촌한옥지원센터,Bukchon Traditional Culture Center,37.578953,126.986115
attractions,11918183,4.176470588235294,스타일난다 핑크호텔,Stylenanda Pink Hotel Flagship Store,37.56207,126.985344
attractions,12034029,4.538461538461538,에스알티,SRT,37.486824,127.10248
attractions,12134415,4.0,경교장,Gyeonggyojang,37.56836,126.96748
attractions,12309166,4.4179104477611935,서울스카이,Seoul Sky,37.51264,127.10249
attractions,12335291,5.0,호텔드코드,,37.551807,126.91909
attractions,1235392,4.317738791423002,조계사,Jogyesa Temple,37.573803,126.98223
attractions,12459260,3.9,서울로7017,Seoullo 7017,37.556667,126.972
attractions,12499622,4.0,백범광장,Baekbeom Plaza,37.555042,126.97916
attractions,12635586,4.40625,별마당 도서관,Starfield Library,37.509945,127.060425
attractions,12910217,4.25,라뜰리에,L’atelier,37.56907,127.00724
attractions,12986884,4.166666666666667,동대문성곽공원,Dongdaemun Seonggwak Park,37.57195,127.00905
attractions,13199013,4.0,익선동한옥거리,Ikseon-dong Hanok Street,37.57343,126.98951
attractions,13433251,5.0,국제선센터,International Seon Center,37.520996,126.87004
attractions,13651545,4.5,현대카드 뮤직 라이브러리,Hyundai Card Music Library,37.536587,127.00066
attractions,13794376,5.0,템플스테이 홍보관,Templestay Information Center,37.573895,126.98318
attractions,13798962,4.0,주한중국문화원,China Cultural Center,37.574566,126.97133
attractions,1379963,4.228090766823161,북촌 한옥마을,Bukchon Hanok Village,37.582767,126.98356
attractions,1383393,3.4266666666666667,동대문 밀리오레,Migliore Dongdaemun Shop,37.568066,127.008934
attractions,13860017,4.0,북한산영취사,Yeongchwisa,37.619324,126.99473
attractions,13954612,4.0,성내동 쭈꾸미골목,Seongnae-dong Octopus Street,37.537117,127.12619
attractions,13968712,5.0,사물놀이 한울림,,37.573788,126.98561
attractions,14015599,3.0,풍납토성,Pungnaptoseong Fortress,37.53459,127.1206
attractions,14021823,4.0,와룡묘,Waryongmyo Shrine,37.554836,126.98664
attractions,14101026,3.0,종로 성당,Jongno Catholic Church,37.57117,126.996635
attractions,14108530,3.0,영락교회,Youngnak Church,37.563328,126.98895
attractions,14112185,3.0,신흥시장,Shinheung Market,37.545475,126.98481
attractions,14112773,4.0,모래내시장,Moraenae Market,37.570427,126.91544
attractions,14135425,3.0,종묘광장공원,Jongmyo Square Park,37.572933,126.994354
attractions,14147985,3.0,옥인 교회,Okin Church,37.582184,126.97034
attractions,14148633,3.0,남대문 커뮤니티 라운지,Namdaemun Community Lounge,37.560284,126.977196
attractions,1418675,3.663265306122448,코엑스 센터,COEX Center,37.513798,127.058105
attractions,14202310,4.0,화랑대역 - 폐역,Hwarangdae Station - Closed Station,37.624542,127.09266
attractions,14202847,4.0,경춘선숲길,Gyeongchun Supgil,37.632008,127.06794
attractions,14202981,4.0,안산자락길,Ansan Jarak-gil,37.568314,126.94721
attractions,1440196,4.354368932038835,서대문 형무소 역사관,Seodaemun Prison History Hall,37.574574,126.956665
attractions,14455910,4.0,황학정국궁전시관,Hwanghakjeong Archery Field,37.576195,126.974014
attractions,14771392,4.0,퀸마마마켓,Queen Mama Market,37.525322,127.035675
attractions,1478599,3.7439613526570046,동대문 쇼핑몰,Dongdaemun Shopping Complex,37.568348,127.00919
attractions,14789834,4.0,서울상상나라,Seoul Children's Museum,37.549362,127.08181
attractions,1489411,2.58974358974359,세븐럭카지노 강북힐튼점,Seven Luck Casino Gangbuk Hilton,37.555824,126.975555
attractions,1519813,4.372509960159364,한강 공원,Hangang Park,37.52343,127.00215
attractions,1532473,3.333333333333333,남평화 상가,Nampyeonghwa Sangga,37.569164,127.01081
attractions,1537022,3.76,동대문 시장,Dongdaemun Market,37.569645,127.00944
attractions,1549822,4.464285714285714,인왕산,Inwangsan Mountain,37.57841,126.95928
attractions,1551271,4.188679245283018,남산골 한옥 마을,Namsangol Hanok Village,37.559303,126.994446
attractions,1552278,4.147587511825924,광장시장,Gwangjang Market,37.570377,127.0009
attractions,1554603,4.376731301939058,창경궁,Changgyeonggung Palace,37.57883,126.99468
attractions,1579821,3.982456140350877,세종대왕 동상,Statue of Sejong the Great,37.57272,126.976944
attractions,1604009,3.997354497354497,가로수길,Garosu-gil,37.52046,127.02281
attractions,1627541,2.9411764705882355,롯데월드 스타 애비뉴,Star Avenue at Lotte World,37.511253,127.09839
attractions,1643534,4.303571428571429,한가람 미술관,Hangaram Art Museum,37.48014,127.01394
attractions,1675961,3.987341772151898,선릉과 정릉,Seolleung & Jeongneung Royal Tomb,37.509323,127.04672
attractions,1723779,3.5,소닌 프라자,Sonin Plaza,37.532913,126.96528
attractions,1735171,3.3846153846153846,메사,Mesa,37.56043,126.97954
attractions,1758805,3.7160493827160495,청와대,The Blue House (Cheong Wa Dae),37.586517,126.97581
attractions,1761206,4.371428571428571,서울글로벌문화체험센터,Seoul Global Cultural Center,37.56242,126.98506
attractions,1766551,3.925438596491228,쌈지길,Ssamji-gil,37.574013,126.98499
attractions,1772732,4.333333333333333,한국 지역정보 센터,Korea Local Information Center,37.50444,127.00402
attractions,1804662,4.529411764705882,홍릉 수목원,Hongneung Arboretum,37.593555,127.04408
attractions,1809989,4.075268817204301,서울 시립 미술관,Seoul Museum of Art,37.56452,126.97384
attractions,1821360,3.928571428571429,청와대 사랑채,Cheongwadae Sarangchae,37.582905,126.97325
attractions,1831099,4.402439024390244,국립국악원,National Gugak Center,37.477673,127.00956
attractions,1836198,4.134831460674159,국립 고궁 박물관,National Palace Museum of Korea,37.576572,126.97549
attractions,1842046,3.8438661710037176,노량진 수산 시장,Noryangjin Fish Market,37.515,126.94138
attractions,1862191,4.2215686274509805,이화여자대학교,Ewha Womans University,37.56022,126.94569
attractions,1862195,3.6,한국 자수 박물관,The Museum of Korean Embroidery,37.51538,127.03334
attractions,1862199,3.888888888888889,명동 서초 불한증막,Myeongdong Seocobulhanjeungmag,37.56239,126.984
attractions,1908282,4.4,산모퉁이,sanmotoonge,37.59536,126.96798
attractions,1946087,3.571428571428572,그랜드 마트,Grand Mart,37.55525,126.93624
attractions,1956582,4.387096774193549,마장시장,Majang Meat Market,37.570858,127.042
attractions,1957485,3.971428571428572,홍익대학교,Hongik University,37.555077,126.923325
attractions,1957627,4.342298288508556,여의도 공원,Yeouido Park,37.526897,126.92273
attractions,1957629,3.696969696969697,국회 의사당,The National Assembly Building,37.52963,126.91627
attractions,1958930,4.0886075949367084,한국의 집,Korea House,37.560486,126.99486
attractions,1958940,4.331950207468879,홍대앞 거리,Hongik University Street,37.555458,126.92374
attractions,1960133,3.6,중앙고등학교 (겨울연가 촬영지),Choong Ang High School (Location for Winter Sonata),37.583572,126.98687
attractions,1960138,3.8623853211009176,문화역서울 284,Culture Station Seoul 284,37.555817,126.97284
attractions,1962594,3.8325581395348833,롯데백화점 본점,Lotte Department Store Main,37.564404,126.98256
attractions,1972734,4.595238095238095,정동극장,Jeongdong Theater,37.565697,126.97292
attractions,1972740,2.3823529411764706,세븐럭카지노 강남코엑스점,Seven Luck Casino Gangnam Coex,37.511883,127.05732
attractions,1990451,4.183333333333334,타임스퀘어,Times Square Mall,37.517727,126.90346
attractions,1992546,2.5555555555555562,명동밀리오레,Myeongdong Migliore,37.563473,126.98362
attractions,2008729,4.568561872909699,잠실 야구 경기장,Jamsil Baseball Stadium,37.512516,127.07218
attractions,2011401,4.162162162162162,신세계 백화점 본점,Shinsegae Dept. Store Main,37.56056,126.98091
attractions,2014599,4.433333333333334,아차산,Achasan Mountain,37.560097,127.10143
attractions,2015834,3.4,파라다이스 카지노 워커힐,Paradise Casino Walkerhill,37.555115,127.11027
attractions,2015883,3.3043478260869565,굿모닝시티,Good Morning City,37.566467,127.007774
attractions,2041644,4.333333333333333,사춤 시어터,SA.CHOOM Theater,37.572678,126.987976
attractions,2041647,3.7142857142857135,롯데 월드 예술 극장,Lotte World Art Theater,37.51131,127.09772
attractions,2092468,4.305555555555555,선유도 공원,Seonyudo Park,37.543514,126.89972
attractions,2094166,4.353658536585366,서울 역사 박물관,Seoul Museum of History,37.570457,126.97044
attractions,2173769,3.717391304347826,세빛섬,Sebitseom,37.512436,126.99599
attractions,2194168,4.537437603993345,서울메트로,Seoul Metro,37.556664,126.98284
attractions,2203080,4.2631578947368425,트릭아이뮤지엄 서울,Trickeye Museum Seoul,37.553406,126.92163
attractions,2209195,3.8,뚝섬 전망문화 콤플렉스 J-Bug,Cultural Complex J-Bug,37.53101,127.066414
attractions,2255376,4.833333333333333,낙산 묘각사,Naksan Myogaksa,37.575756,127.01891
attractions,2269012,3.625,동묘,Dongmyo (Eastern Shrine),37.5732,127.01823
attractions,2293568,3.8979591836734695,경희궁,Gyeonghuigung Palace,37.578438,126.97686
attractions,2293574,3.888888888888889,서울 광장,Seoul Plaza,37.565556,126.977875
attractions,2293590,3.8636363636363638,덕수궁 미술관,"MMCA - National Museum of Contemporary Art, Deoksugung",37.565968,126.9737
attractions,2303919,3.875,절두산 순교 성지,Jeoldusan Martyrs' Shrine,37.544136,126.91246
attractions,2341861,4.428571428571429,여의도 샛강 생태 공원,Yeouido Saetgang Ecological Park,37.518295,126.92196
attractions,2341869,3.6666666666666665,환기 미술관,Whanki Museum,37.59445,126.96622
attractions,2341870,4.571428571428571,쇳대박물관,Lock Museum,37.579796,127.00446
attractions,2341887,4.0,도산 공원,Dosan Neighborhood Park,37.52383,127.03533
attractions,2341905,4.1063829787234045,동대문 역사 문화 공원,Dongdaemun History & Culture Park,37.56655,127.00912
attractions,2341922,4.631578947368421,길상사,Gilsangsa Shrine,37.598434,126.99371
attractions,2367771,3.3076923076923075,서울풍물시장,Seoul Folk Flea Market,37.572567,127.025635
attractions,2369065,4.357142857142857,부엉이 박물관,Owl Museum,37.587154,126.98296
attractions,2392950,4.333333333333333,JN 쇼핑몰,JN Shopping Mall,37.561546,126.98618
attractions,2428773,3.5454545454545454,회현 지하 상가,Hoehyeon Underground Shopping area,37.56075,126.98193
attractions,2457547,3.977272727272727,동대문 시장 생선구이 골목,Grilled Fish Street in Dongdaemun Market,37.5696,127.006004
attractions,2476657,4.25,비보이 시티 인 서울 - 쿵 (홍대 전용관),"B-Boy city in Seoul - Kung, Hongdae Theatre",37.55351,126.92682
attractions,2476788,4.159420289855072,디큐브 시티,D-Cube City,37.508938,126.889305
attractions,2483947,4.705882352941177,홍대난타전용극장,Hongdae NANTA Theatre,37.55309,126.92111
attractions,2483960,5.0,수수보리 아카데미,Susubori Academy,37.564,126.96319
attractions,2519674,3.7857142857142856,서울 애니메이션 센터,Seoul Animation Center,37.558468,126.9875
attractions,2571660,3.991044776119403,이태원,Itaewon,37.534504,126.993935
attractions,2571695,4.380952380952381,와룡 공원,Waryong Park,37.590614,126.99059
attractions,3136733,4.0,칠궁,Chilgung,37.58499,126.97326
attractions,3197992,4.315789473684212,국립극장,The National Theater of Korea,37.552673,126.99934
attractions,320359,4.381642512077296,창덕궁,Changdeokgung Palace,37.579254,126.99215
attractions,324887,4.24105461393597,덕수궁,Deoksugung,37.565495,126.974815
attractions,324888,4.404741000877963,경복궁,Gyeongbokgung Palace,37.57843,126.97701
attractions,324890,4.30938123752495,국립 민속 박물관,The National Folk Museum of Korea,37.58133,126.9789
attractions,324891,3.8305949008498574,롯데월드,Lotte World,37.511112,127.09888
attractions,324907,3.9911003236245954,남대문시장,Namdaemun Market,37.56031,126.97733
attractions,324915,4.40625,명동난타극장,Myeongdong NANTA Theater,37.56353,126.98367
attractions,324951,3.456140350877193,탑골 공원,Tapgol Park,37.5712,126.98835
attractions,325043,4.468975468975469,국립중앙박물관,National Museum of Korea,37.523922,126.98085
attractions,3313698,3.0,티움,T.um - SK telecom Ubiquitous Museum,37.566544,126.98499
attractions,3313701,4.111111111111111,백사실 계곡,Baeksasil vally,37.600266,126.96631
attractions,3322253,4.467268623024831,KTX,KTX (Korea Train Express),37.553448,126.97111
attractions,3349619,4.666666666666667,세계장신구박물관,World Jewellery Museum,37.580963,126.98179
attractions,3531799,4.7368421052631575,전쟁과 여성 인권 박물관,The War and Women's Human Rights Museum,37.560078,126.91486
attractions,3568803,3.585185185185185,반포대교,Banpodaegyo Bridge,37.512417,126.99805
attractions,3600495,3.700934579439252,남산 케이블카,Namsan Cable Car,37.55657,126.98416
attractions,3670803,3.75,서울대학교 미술관,"Museum of Art, Seoul National University",37.466446,126.94894
attractions,3694405,4.176470588235294,운현궁,Unhyeongung,37.57614,126.98698
attractions,3694519,4.052631578947368,이화 벽화마을,Ihwa Mural Village,37.577896,127.00732
attractions,3694539,4.578947368421051,대림 미술관,Daelim Museum,37.5775,126.97345
attractions,3694651,3.2857142857142856,영등포 시장,Yeongdeungpo Market,37.51975,126.90793
attractions,3805413,4.4,국립국악박물관,Museum of Traditional Korean Music,37.478832,127.012
attractions,3805418,4.1,"떡,부엌살림박물관",Tteok and Kitchen Utensil Museum,37.574867,126.99062
attractions,3805427,4.0,아름다운 차박물관,Beautiful Tea Museum,37.572315,126.98586
attractions,3805440,3.6,동림매듭박물관,Dong-Lim Knot Museum,37.581867,126.98561
attractions,3805459,4.6,한상수자수박물관,Hansangsoo Embroidery Museum,37.58273,126.98564
attractions,3805479,4.071428571428571,독립문,Dongnimmun Gate,37.5745,126.958
attractions,3805483,4.285714285714286,서대문 자연사 박물관,Seodaemun Museum of Natural History,37.576622,126.93767
attractions,3805494,4.5,이리자 한복전시관,Hanbok Museum,37.577576,126.97976
attractions,3805521,4.111111111111111,서울 정릉,Jeongneung Royal Tomb,37.602272,127.00643
attractions,3805530,5.0,평강 성서유물 박물관,Abraham Park Kenneth Vine Collection Museum,37.492,126.844
attractions,3805545,5.0,명인박물관,Myeongin Museum,37.580135,126.98518
attractions,3805561,4.0,정동교회,Chungdong Church,37.565323,126.97297
attractions,3805568,4.571428571428571,가회민화박물관,Gahoe Museum,37.58213,126.98564
attractions,3805580,4.666666666666667,간송 미술관,Gansong Art Museum,37.5942,126.997
attractions,3805589,4.0,서울 의릉,Uireung,37.603836,127.05755
attractions,3805601,3.9565217391304346,보신각,Bosingak,37.569973,126.98338
attractions,3805639,4.285714285714286,우표박물관,Korean Postage Stamp Museum,37.561687,126.98229
attractions,3808256,3.4814814814814814,이태원 앤틱 가구 거리,Itaewon Antique Furniture Street,37.53152,126.99374
attractions,3808298,4.0,호림아트센터 신사분관,Horim Museum (Sinsa),37.522167,127.036
attractions,3808303,4.166666666666667,국립민속박물관 어린이박물관,Children's Folk Museum,37.581566,126.97893
attractions,3808305,4.0,연세로,Yeonsero (Yonsei University Street),37.56117,126.93992
attractions,3808315,3.875912408759124,숭례문,Sungnyemun Gate,37.559937,126.97528
attractions,3821647,5.0,꼭두 박물관,Kokdu Museum,37.583706,127.00359
attractions,3822061,3.9913793103448274,IFC 몰,IFC Mall,37.52533,126.925644
attractions,3871936,4.384615384615385,국립현대미술관 서울관,National Museum of Modern and Contemporary Art Seoul,37.579147,126.98032
attractions,3901164,3.608108108108108,롯데아울렛 서울역점,Lotte Outlets Seoul Station,37.55235,126.97213
attractions,3901265,4.371428571428571,서울중앙성원,Seoul Central Mosque,37.53338,126.99748
attractions,3901448,4.2,경희대학교 서울캠퍼스,Kyunghee University Seoul Campus,37.595448,127.05276
attractions,3957040,4.220588235294118,대한민국 역사 박물관,National Museum of Korean Contemporary History,37.57396,126.97768
attractions,4084344,4.009433962264152,서울 시청,Seoul City Hall,37.56629,126.97784
attractions,4084362,4.333333333333333,광희 패션몰,Kwanghee Fasion Mall,37.568584,127.01192
attractions,4084386,4.4482758620689635,북악산 서울 성곽,Bugaksan Seoul Fortress,37.59371,126.97753
attractions,4094797,4.333333333333333,갤러리 아라리오 서울,Gallery Arario Seoul,37.57905,126.98201
attractions,4094800,5.0,공근혜 갤러리,Gonggeunhye Gallery,37.58399,126.97965
attractions,4094809,4.181818181818182,뚝섬 한강공원 수영장,Ttukseom Hangang Park,37.531868,127.07028
attractions,4094815,4.0,알파갤러리,Alpha Gallery,37.56026,126.97672
attractions,4094834,5.0,갤러리 더 스페이스,Gallery The Space,37.520798,127.04847
attractions,4094840,5.0,Moin Gallery,Moin Gallery,37.574226,126.98581
attractions,4094859,2.0,갤러리선컨템포러리,Gallery SUN Contemporary,37.5805,126.98037
attractions,4094861,4.416,하늘공원,Haneul Park,37.566414,126.88615
attractions,4094871,5.0,갤러리위,Gallery We,37.59123,126.98003
attractions,4094877,4.166666666666667,충무아트센터,Chungmu Arts Center,37.566006,127.0148
attractions,4094903,3.6,아이스갤러리,Ice Gallery,37.553883,126.92205
attractions,4094934,4.0,유니버설아트센터,Universal Art Center,37.55025,127.08756
attractions,4094936,3.333333333333333,나이프갤러리,Knife Gallery,37.573765,126.984856
attractions,4094942,3.5,구로아트밸리,Guro Art Valley,37.49654,126.88897
attractions,4094957,5.0,갤러리 사비나,Gallery Sabina,37.57398,126.98543
attractions,4095486,5.0,암사동선사주거지,Ahmsadong Seonsa Joogeoji,37.55764,127.13072
attractions,4095494,3.0,육군박물관,Korea Army Museum,37.624485,127.08224
attractions,4095498,2.6666666666666665,삼전도비,Samjeondobi,37.50332,127.10706
attractions,4095502,3.78,아이파크몰,I-Park Mall,37.528965,126.96546
attractions,4095561,5.0,숙명여자대학교박물관,Sookmyung Women's University Museum,37.545578,126.96539
attractions,4095581,5.0,겸재정선기념관,Gyeomjae Jeongseon Memorial Museum,37.572166,126.83837
attractions,4095605,5.0,박을복자수박물관,Park Eul Bok Embroidery Museum,37.653534,127.0086
attractions,4095620,5.0,경운박물관,Kyungwoon Museum,37.486828,127.06609
attractions,4095644,3.0,티벳박물관,Tibet Museum,37.580105,126.98194
attractions,4095657,3.5,암사동선사주거지 원시생활전시관,Amsadong Pre-history Settlement Site,37.560566,127.13087
attractions,4095668,5.0,산악박물관,Korea Alpine Museum,37.497837,127.0356
attractions,4095671,4.571428571428571,연세대학교 박물관,Yonsei University Museum,37.5655,126.93793
attractions,4095679,3.4,사육신공원,Sayookshin Park,37.513515,126.94866
attractions,4095680,4.3,낙성대공원,Nakseongdae Park,37.470974,126.960526
attractions,4095681,4.2727272727272725,장충단공원,Jangchungdan Park,37.558743,127.00477
attractions,4095685,4.317829457364341,낙산공원,Naksan Park,37.580868,127.00816
attractions,4096206,3.0,돈암문화스포츠센터,Donahm Moonhwa Sports Center,37.593277,127.01294
attractions,4096207,4.5,용산구문화체육센터,Yongsangoo Moonhwa Chaeyook Center,37.53722,126.9677
attractions,4096223,4.714285714285714,남산타운문화체육센터,Namsan Town Culture Sports Center,37.54956,127.01189
attractions,4096226,4.166666666666667,마포아트센터,Mapo Art Center,37.549953,126.94558
attractions,4097409,4.615384615384615,한국 가구 박물관,Korea Furniture Museum,37.60002,126.99316
attractions,4211969,4.0,우정총국,Ujeongchongguk,37.574406,126.98273
attractions,4235275,4.190476190476192,샤롯데 씨어터,Charlotte Theater,37.511253,127.09802
attractions,4323885,4.6,충정로 난타극장,Chungjeongno NANTA Theatre,37.559956,126.9622
attractions,4412686,5.0,안중근의사 기념관,An Jung-geun Memorial Hall,37.553432,126.98054
attractions,4427522,5.0,서울시립미술관 남서울분관,Seoul Museum of Art Namseoul Bunkwan,37.47613,126.97959
attractions,4427533,5.0,한원미술관,Hanwon Museum of Art,37.48176,127.01545
attractions,4438505,4.371428571428571,롯데월드 민속박물관,Lotte World Folk Museum,37.5112,127.098
attractions,4438789,4.5,불교중앙박물관,Central Buddhist Museum,37.573715,126.98198
attractions,4798698,3.7777777777777777,서울 올림픽 기념관,Seoul Olympic Museum,37.521,127.116
attractions,4798711,4.458874458874459,서울숲,Seoul Forest,37.544132,127.041725
attractions,4798715,4.464788732394366,여의도 한강공원,Yeouido Hangang Park,37.52747,126.93387
attractions,502576,4.204545454545454,삼청각,Samcheonggak,37.59759,126.98369
attractions,553213,4.121621621621622,서울 대학로,Seoul Daehangno,37.58098,127.0024
attractions,553246,3.97,신촌,Sinchon,37.55694,126.936806
attractions,553546,4.249102656137832,명동 쇼핑 거리,Myeongdong Shopping Street,37.56355,126.98473
attractions,554303,3.767045454545455,스타필드 코엑스몰,Starfield COEX Mall,37.511185,127.06021
attractions,554528,4.683908045977012,북한산 국립공원,Bukhansan National Park,37.654488,126.97902
attractions,554533,3.7973856209150334,동대문 (흥인지문),Dongdaemun Gate (Heunginjimun),37.571075,127.009094
attractions,554537,4.626850605652759,한국 전쟁 기념관,The War Memorial of Korea,37.535297,126.97722
attractions,554551,3.7945205479452055,63시티,63 City,37.5198,126.94008
attractions,554582,4.328843106180666,남산 공원,Namsan Park,37.551746,126.98804
attractions,554634,4.204946996466431,종묘,Jongmyo Shrine,37.572933,126.994354
attractions,561808,4.0,서울 월드컵 경기장 (상암 월드컵 경기장),Seoul World Cup Stadium,37.568386,126.896866
attractions,590748,4.296391752577319,광화문,Gwanghwamun Gate,37.57581,126.97692
attractions,5924188,4.0,트릭 월드,Trick World,37.562412,126.9841
attractions,592440,3.75,사직 공원,Sajik Park,37.57572,126.96864
attractions,592441,4.285714285714286,국립 4.19 민주 묘지,4.19 Memorial Cemetery,37.648933,127.00785
attractions,592450,4.333333333333333,농업 박물관,Agricultural Museum,37.56663,126.968254
attractions,5924658,4.095238095238095,서울 미술관,Seoul Museum,37.59487,126.963455
attractions,592482,4.125,봉원사,Bongwonsa Temple,37.572132,126.9471
attractions,592483,3.4285714285714284,63 시월드,Aquarium 63 SeaWorld,37.519783,126.94021
attractions,592484,4.051470588235294,충무공 이순신 동상,Statue of Admiral Yi Sun-Sin,37.57072,126.97692
attractions,592486,4.389972144846797,봉은사,Bongeunsa Temple,37.515244,127.056946
attractions,592487,4.318181818181818,보라매 공원,Boramae Park,37.49184,126.91938
attractions,592490,4.265560165975104,서울 어린이 대공원,Seoul Children's Grand Park,37.549084,127.08271
attractions,592492,3.6666666666666665,한국 금융사 박물관,Shinhan Museum,37.568626,126.97645
attractions,592495,4.038539553752536,코엑스 아쿠아리움,Coex Aquarium,37.512913,127.05837
attractions,592497,4.428571428571429,도선사,Doseonsa Temple,37.655304,126.98971
attractions,592500,4.5,옹기 민속 박물관,Onggi Folk Museum,37.654522,127.014915
attractions,592502,4.666666666666667,지구촌 민속 박물관,Global Village Folklore Museum,37.55451,126.98116
attractions,592504,4.5,호림 박물관 신림 본관,Horim Museum Sillim,37.48087,126.918205
attractions,592506,4.248700410396717,인사동,Insadong,37.574165,126.98491
attractions,592507,4.21875,세종대왕 기념관,King Sejong Memorial Hall,37.590244,127.04338
attractions,592508,4.228571428571429,국립 서울 현충원,Seoul National Cemetery,37.496075,126.96713
attractions,592517,4.0,토탈 미술관,Total Art Museum,37.612144,126.97561
attractions,592518,4.333333333333333,서울 세관 박물관,Korean Customs Museum,37.518185,127.03472
attractions,592520,3.466666666666667,마로니에 공원,Marronnier Park,37.5804,127.00279
attractions,592521,3.814814814814815,뮤지엄김치간,Museum Kimchikan,37.57356,126.98528
attractions,592523,4.433333333333334,용산 가족 공원,Yongsan Family Park,37.521122,126.984146
attractions,592524,4.0,육군 사관학교,Korea Military Academy,37.625015,127.097305
attractions,592658,4.3951219512195125,올림픽 공원,Olympic Park,37.517876,127.1194
attractions,5971975,3.9090909090909087,KBS 온,KBS On,37.52559,126.91642
attractions,598499,4.3649635036496335,삼성미술관 리움,Leeum Samsung Museum of Art,37.538036,126.99899
attractions,609340,4.34412955465587,명동 성당,Myeong-dong Cathedral,37.563774,126.986855
attractions,6197433,4.333333333333333,덕수궁미술관,"National Museum of Art, Deoksugung",37.565872,126.97501
attractions,6197467,3.0,수도국산 달동네박물관,Sudoguksan Museum of Housing and Living,37.572536,126.99806
attractions,6197503,4.75,백범김구기념관,Kim Koo Museum & Library,37.545025,126.95974
attractions,632509,4.4444444444444455,화계사,Hwagyesa Temple,37.632664,127.007195
attractions,6352852,3.953488372093023,메세나폴리스몰,Mecenatpolis Mall,37.5506,126.91368
attractions,6378743,4.0576923076923075,박물관은살아있다 인사동점,Alive Museum Insadong,37.57171,126.98729
attractions,6509932,4.178571428571429,낙산 공공 미술,Naksan Public Art,37.56657,127.00774
attractions,6570666,4.0,이대 패션거리,Ewha Woman's University,37.557373,126.94583
attractions,6656809,4.352941176470588,고려대학교,Korea University,37.59002,127.03184
attractions,6656879,4.258181818181818,삼청동길,Samcheongdong-gil Road,37.582783,126.98187
attractions,6671988,4.227761485826002,동대문 디자인 플라자,Dongdaemun Design Plaza (DDP),37.567024,126.99493
attractions,6680423,4.3076923076923075,한국관광공사 관광안내전시관,Tourist Information Center of Korea Tourism Organization,37.568523,126.98165
attractions,6732940,4.5,빛타래,Bittarae,37.51824,126.90121
attractions,6847894,4.916666666666667,양화진 외국인 선교사 묘원,Yanghwajin Foreign Missionary Cemetery,37.546474,126.91138
attractions,6847900,4.162291169451074,광화문 광장,Gwanghwamun Square,37.574066,126.97677
attractions,6876616,4.0,서울 석촌동 고분군,Seoul Seokchon-dong Ancient Tombs,37.501972,127.10288
attractions,6941864,4.0,서울남산국악당,Seoul Namsan Traditional Theater,37.5585,126.9935
attractions,6960656,3.827586206896552,마리오 아울렛,Mario outlet,37.478706,126.8865
attractions,7028430,4.354838709677419,양재 시민 공원,Yangjae Citizens' Park,37.4699,127.03706
attractions,7028432,4.666666666666667,꿈의 숲,Dream Forest,37.621567,127.04007
attractions,7028448,4.375,몽마르뜨 공원,Montmartre Park,37.49502,127.00361
attractions,7060791,4.0,63 스카이 아트,63 Sky Art,37.519733,126.940155
attractions,7060830,3.0,시몬느 핸드백 박물관,Simone Handbag Museum,37.519024,127.023
attractions,7060833,4.636363636363637,경인 미술관,Kyung-In Museum of Fine Art,37.57456,126.98562
attractions,7060838,4.7,청계천 박물관,Cheonggyecheon Museum,37.57124,127.03502
attractions,7118734,3.2,북촌 문화 센터,Bukchon Cultural Center,37.579037,126.9864
attractions,7154750,4.294117647058823,홍대앞 예술시장 프리마켓,Hongdae Art Market Free Market,37.552277,126.922966
attractions,7154824,4.5,대림 시장,Daelim Market,37.61003,126.92149
attractions,7154849,2.8,리틀 도쿄,Little Tokyo,37.520683,126.96868
attractions,7154853,5.0,중앙아시아촌,Central Asian Village,37.563797,127.00023
attractions,7154858,4.565217391304348,아라리오뮤지엄 인 스페이스,Arario Museum in Space,37.577656,126.98847
attractions,7154928,3.6,동묘벼룩시장,Dongmyo Flea Market,37.575405,127.01939
attractions,7154939,3.75,청담동 패션 거리,Cheongdam Fashion Street,37.525063,127.04933
attractions,7264107,4.1578947368421035,고투 몰,GOTO Mall,37.506226,127.00491
attractions,7264189,5.0,천주교 순교성지 새남터 기념성당,Saenamteo Catholic Holy Place of the Martyrs,37.524426,126.95614
attractions,7353795,4.2222222222222205,북촌 전망대,Bukchon Observatory,37.582973,126.98274
attractions,7622540,4.384615384615385, ,Jeongdong Observatory,37.565514,126.97553
attractions,7717373,4.446808510638298,서울 한양 도성,Seoul City Wall,37.566536,126.97797
attractions,7891686,4.291666666666667,세종이야기  충무공이야기,The Story of King Sejong & The Story of Admiral Yi Sunshin,37.572693,126.9769
attractions,7891838,4.4,LG 아트센터,LG Arts Center,37.5019,127.037285
attractions,7891912,4.75,답십리 고미술상가,Dapsimni Antique Shopping Mall,37.569332,127.051
attractions,7891924,4.8,금호미술관,Kumho Museum of Art,37.577526,126.97982
attractions,7891939,3.75,선유교,Seonyugyo Bridge,37.540817,126.90172
attractions,7891991,4.166666666666667,디지털파빌리온,Digital Pavilion,37.579636,126.89101
attractions,7892136,4.166666666666667,배재학당역사박물관,Appenzeller Noble Memorial Museum,37.56389,126.97253
attractions,8029067,4.076923076923077,테지움 서울,Teseum Seoul,37.57171,127.0153
attractions,8084014,4.34375,현대백화점 압구정본점,Hyundai Department Store Apgujeong Main,37.52731,127.02749
attractions,8121881,4.25,갤러리아 백화점 본점,The Galleria Main Store,37.527866,127.04159
attractions,8262102,4.0,심심헌,Simsimheon,37.582684,126.98356
attractions,8449187,4.181818181818182,한성 백제 박물관,Seoul Baekje Museum,37.51555,127.12097
attractions,8556104,4.0,명동관광정보센터,Myeongdong Tourist Information Center,37.56581,126.98448
attractions,8630566,4.75,다이나믹 메이즈,,37.571705,126.98727
attractions,8693245,4.654545454545454,3D블랙아트 박물관,3D Black Art Museum,37.561787,126.98664
attractions,8737878,4.767441860465117,그레뱅뮤지엄,Grevin Museum,37.56608,126.98047
attractions,8749178,3.2142857142857144,평화시장,Pyeonghwa Market,37.569603,127.00953
attractions,8769919,3.928571428571429,한양도성박물관,Seoul City Wall Museum,37.572594,127.00805
attractions,8790342,4.375,용마랜드,Yongma Land,37.59437,127.10529
attractions,8798065,4.147058823529412,롯데월드 아쿠아리움,Lotte World Aquarium,37.509766,127.102684
attractions,8822284,4.142857142857143,고척스카이돔,Gocheok Sky Dome,37.49816,126.86721
attractions,8822309,3.702702702702703,롯데 영플라자 명동점,Lotte Young Plaza Myeongdong,37.56363,126.98201
attractions,8842556,4.30564784053156,롯데월드타워&몰,Lotte World Tower & Mall,37.512596,127.10259
attractions,9582584,3.5211267605633805,두타,Doota,37.568806,127.009186
attractions,9583000,3.5625,롯데 피트인,Lotte FitIn,37.565987,127.00741
attractions,9583069,5.0,서초관광정보센터,Seocho Tourist Information Center,37.49809,127.02704
attractions,9755552,4.1,신세계 강남점,Shinsegae Gangnam,37.50492,127.00419
attractions,9796664,3.72972972972973,,Common Ground,37.541237,127.06583
attractions,9996891,3.5555555555555562,놀이똥산,Poopoo Land,37.57438,126.98503
attractions,10253186,4.290322580645161,,LINE Friends Flagship Store Myeongdong Station,37.561398,126.98449
attractions,1383392,2.8181818181818183,,The Shilla Duty Free Seoul,37.557194,127.00736
attractions,14774067,4.0,,Seokhojeong,37.554775,126.99866
attractions,14975451,5.0,,Dongdaemun History & Culture Park,37.566753,127.0101
attractions,10020511,4.75,하이서울페스티벌,Hi Seoul Festival,37.525121999999996,126.90307
attractions,10620641,5.0,문정전각갤러리,Jeon-Gak Gallery,37.574684000000005,126.984249
attractions,10625757,4.0,명성교회,Myungsung Presbyterian Church,37.548522999999996,127.14774799999999
attractions,11772906,4.75,공항철도 여행센터,Airport Railroad Travel Center,37.554843,126.971718
attractions,13688351,4.0,고희동가옥,House of Go Hui-dong,37.58314,126.98895700000001
attractions,14064107,5.0,대원콘텐츠라이브,Popcond Square,37.529633000000004,126.964597
attractions,3808299,4.25,국립중앙박물관 어린이박물관,Children’s Museum of National Museum of Korea,37.523720000000004,126.97993999999998
attractions,4094818,4.0,동덕아트갤러리,Dongduk Art Gallery,37.574982,126.98326000000002
attractions,4094832,4.666666667,갤러리나우,Gallery Now,37.573798,126.98494
attractions,4094887,5.0,아트센터나비,Art Center Nabi,37.569803,126.98028500000001
attractions,4094927,2.0,갤러리 루미나리에,Gallery Luminarie,37.496381,127.04104099999999
attractions,4095481,4.0,경희대학교 중앙박물관,The Central Museum of KyungHee University,37.595690000000005,127.05283500000002
attractions,4095493,2.0,몽촌역사박물관,Mongchon Museum of History,37.520352,127.115397
attractions,4095656,5.0,한국현대의상박물관,The Korea Museum of Modern Costume,37.575469,127.005521
attractions,4798548,5.0,티오비보 신도림점,Tiovivo Shindorim Store,37.507117,126.890258
attractions,4798567,5.0,국제갤러리,Kukje Gallery,37.580715999999995,126.980544
attractions,4798570,4.0,덕원갤러리,Deokwon Gallery,37.572936999999996,126.98648
attractions,4798571,5.0,윤갤러리,Yoon Gallery,37.574199,126.985455
attractions,4798574,5.0,트렁크갤러리,Trunk Gallery,37.579904,126.98137
attractions,4798583,4.666666667,가나아트갤러리,Gana Art Gallery,37.612215,126.97516399999999
attractions,4798610,4.0,서울올림픽미술관,Seoul Olympic Misulgwan,37.522551,127.11653600000001
attractions,4798618,4.0,사진박물관,The Museum of Photography,37.516602,127.113948
attractions,4798630,3.2,서울패션센터,Seoul Fashion Center,37.567197,127.01184599999999
attractions,4798642,4.0,홍릉수목원,Hongreung Sumokwon,37.593191999999995,127.043604
attractions,4798676,5.0,종이나라박물관,Jong Ie Nara Paper Art Museum,37.559589,127.006128
attractions,4798681,4.0,경찰박물관,The Korean National Police Heritage Museum,37.569016,126.96964399999999
attractions,4798686,1.0,한국영상자료원,Korean Film Archive,37.580599,126.889655
attractions,4798687,5.0,보나장신구박물관,Bona Museum/Gallery,37.573578999999995,126.98453500000001
attractions,4798694,4.833333333,목인박물관,Mokin Museum,37.573959,126.983726
attractions,4798717,4.5,삼청공원,Samcheong Park,37.588423,126.983994
attractions,4798825,4.0,우리금융아트홀,Woori Financial Art Hall,37.520352,127.115397
attractions,4798827,4.0,올림푸스홀,Olympus Hall,37.511381,127.048506
attractions,592515,2.0,마루존 김치 백화점,Maruzon Kimchi Market,37.516743,127.040825
attractions,9997012,4.5,만해 한용운 심우장,Manhae Han Young Un Simujang,37.593588000000004,126.991658
attractions,10536576,4.333333333,이화벽화마을,Ewha Mural Village,37.577553,127.005765
attractions,592442,4.0,아차산성,Achasanseong Fortress,37.551093,127.09945
attractions,7892131,4.0,서서울호수공원,Seoseoul Lake Park,37.527431,126.830075
attractions,9569019,4.428571429,원각사지 10층석탑,Ten-story Stone Pagoda of Wongaksa Temple Site,37.570545,126.988018
attractions,10779009,4.0,광희문,Gwanghuimun,37.564322,127.00966499999998
attractions,13151875,5.0,평화의 소녀상,Statue of Peace,37.589346,127.00667299999999
attractions,3805397,3.5,서울대학교 규장각,Gyujanggak Library of Seoul National University,37.490355,126.95721200000001
attractions,4427670,3.666666667,서울대학교병원 의학박물관,Seoul University Hospital Medical Museum,37.580096000000005,127.001814
attractions,8019604,4.0,서대문독립공원,Seodaemun Independence Park,37.572748,126.958509
attractions,8627561,4.5,뮤지엄 김치간,Museum Kimchikan,37.572437,126.986985
attractions,14975458,4.0,종로타워,Jongno Tower,37.57075,126.9836
attractions,14975672,3.0,동대문운동장기념관,Dongdaemun Stadium Memorial,37.567301,127.01138
attractions,10210051,3.2,누죤,Nuzzon,37.566953999999996,127.013026
attractions,10253198,4.4,서울파이낸스센터,Seoul Finance Center,37.568424,126.978255
attractions,10270564,4.1875,코엑스,COEX Center,37.512562,127.05876200000002
attractions,10376613,4.8,망원 한강공원,Mangwon Hangang Park,37.552347999999995,126.899875
attractions,10388757,3.0,북한산성 방문자센터,Bukhansanseong Visitor Center,37.655643,126.94941999999999
attractions,10447913,3.5,동대문역사관1398,Dongdaemun History Museum 1398,37.566981,127.009754
attractions,10464413,5.0,시네코아비밥전용관,CineCore Bibap Theater,37.568887,126.988052
attractions,10686434,4.0,구로시장,Guro Market,37.489267,126.88546799999999
attractions,10686449,3.5,남구로시장,Namguro Market,37.490289000000004,126.885928
attractions,10813620,4.8571428569999995,서울도서관,Seoul Metropolitan Library,37.566612,126.97811000000002
attractions,10897838,4.75,북악스카이웨이,Bugak Skyway,37.601023,126.97711799999999
attractions,11434444,4.333333333,국기원,Kukkiwon World Taekwondo Headquarters,37.502276,127.03023200000001
attractions,11850476,4.0,서울창포원,Seoul Iris Garden,37.689505,127.047154
attractions,11879393,3.4,눈스퀘어,Noon Square,37.563419,126.98288500000001
attractions,11879406,3.666666667,인사동관광안내소,Insadong Tourist Information Center,37.575408,126.983492
attractions,11879469,2.666666667,동대문지하쇼핑센터,Dongdaemun Underground Shopping Center,37.570412,127.009528
attractions,11879639,3.5,해밀턴,Hamilton Shopping Center,37.534760999999996,126.993944
attractions,11879686,4.0,하나아트갤러리,Hana Art Gallery,37.573927000000005,126.98527800000001
attractions,11879752,3.333333333,명동지하상가,Myeongdong Underground Shopping Center,37.563565000000004,126.982079
attractions,11926378,3.0,세빛섬,undefined,37.512228,126.995231
attractions,11928572,4.571428571,삼청공원,Samcheong Park,37.572594,126.97900200000001
attractions,11960625,4.25,피규어뮤지엄,Figure Museum,37.525804,127.04038100000001
attractions,12118155,5.0,열린극장,Open Hall,37.583696999999994,127.000328
attractions,12202187,4.2,경의선숲길,Gyeongui line forest,37.556539,126.92838
attractions,12238654,4.0,롯데몰 은평점,Lotte Mall Eunpyeong,37.653634000000004,126.950445
attractions,12339161,4.5,잠실종합운동장,Jamsil Sports Complex,37.514205,127.075042
attractions,12447861,2.0,종각지하쇼핑센터,Jonggak Basement Shopping Center,37.570363,126.98568799999998
attractions,12459280,4.0,시티스타몰,Citistar Mall,37.565866,126.97938799999999
attractions,12496146,5.0,윤스칼라,Yoon's Color,37.550171,126.92365
attractions,12538661,4.230769231,고속터미널상가,Express Bus Terminal Shopping Center,37.505381,127.007074
attractions,12538691,4.5,에이피엠 플레이스,apm Place,37.565303,127.00841799999999
attractions,12587887,5.0,역삼동성당,Yeoksam Catholic Church,37.500442,127.041882
attractions,12657697,4.0,양천향교,Yangcheon Hyanggyo,37.572984000000005,126.839823
attractions,12673929,4.0,소악루,Soaknu Pavillion,37.574165,126.840801
attractions,12763399,5.0,평화의소녀상,Statue of Peace,37.575243,126.98004099999999
attractions,12841946,4.0,롯데콘서트홀,Lotte Concert Hall,37.513059999999996,127.10301799999999
attractions,12847901,3.0,마포주민편익시설,Mapo Community Welfare Facility,37.576679999999996,126.895397
attractions,12881807,4.5,난지천공원,Nanjicheon Park,37.572178,126.889113
attractions,12928976,4.0,DMC홍보관,Digital Media City Gallery,37.577703,126.892098
attractions,12986922,5.0,소공지하도상가,Sogongdong Underground Shopping Center,37.564494,126.980154
attractions,12986927,3.333333333,문화비축기지,Mapo Oil Tank Culture Park,37.571591,126.89376299999999
attractions,13004245,4.0,공덕시장,Gongdeok Market,37.544669,126.953152
attractions,13086721,3.0,최규하대통령가옥,House of Former President Choi Kyu-hah,37.555344,126.914907
attractions,13123227,4.0,장충체육관,Jangchung Arena,37.558188,127.006634
attractions,13138039,4.0,연세대학교 신촌캠퍼스,Yonsei University Sinchon Campus,37.564855,126.94026000000001
attractions,13141984,4.0,보라매공원,Boramae Park,37.493272,126.919854
attractions,13147874,5.0,평화의 소녀상,Statue of Peace,37.489412,127.005725
attractions,13151759,5.0,평화의 소녀상,Statue of Peace,37.644717,127.058718
attractions,13151896,5.0,평화의 소녀상,Statue of Peace,37.567578999999995,126.970082
attractions,13152278,5.0,평화의 소녀상,Statue of Peace,37.63903,127.02635
attractions,13152481,5.0,평화의 소녀상,Statue of Peace,37.561692,127.037057
attractions,13155667,5.0,평화의 소녀상,Statue of Peace,37.654107,127.038665
attractions,13155689,5.0,평화의 소녀상,Statue of Peace,37.534095,126.98868
attractions,13169763,4.333333333,올림픽공원 세계평화의문,World Peace Gate at Olympic Park,37.520352,127.115397
attractions,13172633,4.0,경의선책거리,Gyeongui Line Book Street,37.556539,126.92838
attractions,13172639,5.0,아시아공원,Asia Park,37.51013,127.076008
attractions,13222799,4.0,목은선생영당,Mok Eun Seonsaeng Shrine,37.573798,126.980695
attractions,13319719,4.0,영천시장,Yeongcheon Market,37.571618,126.960121
attractions,13319724,4.333333333,망원시장,Mangwon Market,37.55624,126.90561299999999
attractions,13412916,5.0,쎈토이뮤지엄&쇼룸,Ssentoy Museum & Showroom,37.551126000000004,126.98785
attractions,13436805,4.333333333,김포공항 전망대,Gimpo International Airport Observatory Deck,37.560905,126.79969399999999
attractions,13553491,4.0,종로홍보관,Jongno Public Relations Hall,37.571593,126.980034
attractions,13956902,4.0,사모바위,Samo Bawi,37.607609000000004,126.958477
attractions,13999912,4.0,강남스타일 말춤 무대,Gangnam Style Horse Dance Stage,37.498946999999994,127.027629
attractions,2269011,4.0,문묘,Munmyo,37.585495,126.996692
attractions,3805417,4.0,리아나 화장박물관,Coreana Art & Culture Complex,37.524057,127.03276699999999
attractions,3805419,4.666666667,한국미술박물관,Museum of Korean Art,37.580734,126.988933
attractions,3805517,4.0,태릉,Taereung,37.630153,127.09745500000001
attractions,3805519,4.625,진관사,Jingwansa Temple,37.637957,126.946474
attractions,3805557,5.0,로봇 박물관,Robot Museum,37.582967,127.003576
attractions,3805584,3.0,이화장,Ihwajang House,37.577956,127.00663200000001
attractions,3805602,4.75,헌릉과 인릉,Heolleung / Illeung,37.46437,127.082348
attractions,3805624,3.666666667,북촌 생활사박물관,Bukchon Museum Old Fragrance,37.584413,126.98296100000002
attractions,3805629,4.25,구러시아 공사관,Former Russian Legation,37.567671999999995,126.971507
attractions,3805630,4.0,숙정문,Sukjeongmun Gate,37.594741,126.98320600000001
attractions,3808276,4.5,혜화문 (홍화문),Hyehwamun Gate (Honghwamun),37.579542,126.99486999999999
attractions,3957021,4.666666667,북촌 동양 문화 박물관,Asian Art Museum,37.583788,126.983525
attractions,4067949,5.0,아트선재센터,Artsonje Center,37.579412,126.98181799999999
attractions,4427534,4.25,플라토,Plateao,37.56162,126.97498600000002
attractions,4427620,3.666666667,화정박물관,Hwajeong Museum,37.604602,126.96598200000001
attractions,4427650,5.0,울트라건축박물관,Ultra Architecture Museum,37.519839000000005,126.85339499999999
attractions,4427657,5.0,생명과학체험박물관,Seangmyeong Gwahak Cheheom Bakmulgwan,37.523928000000005,126.871999
attractions,4427661,5.0,갤러리현대,Gallery Hyundae,37.527731,127.035808
attractions,4427662,5.0,분재박물관,Bonsai Museum,37.453432,127.075474
attractions,4438496,4.0,서울아트센터 공평갤러리,Seoul Art Center Gongpyeong Gallery,37.571884999999995,126.983585
attractions,4438517,3.0,웅갤러리,Woong Gallery,37.521525,127.037144
attractions,4438637,5.0,강북문화예술회관,Ganbuk Munhwa Yesulhoekwan,37.640778999999995,127.01341000000001
attractions,4438686,4.5,강동구립해공도서관,Gandong Gurip Hegong Doseokwan,37.544384,127.126407
attractions,4438687,3.0,세곡문화센터,Segok Munhwa Center,37.469046,127.10692399999999
attractions,4438706,4.0,개포2문화센터,Gepo2 Munhwa Center,37.516357,127.042075
attractions,4438716,4.5,덕수궁 중명전,Jungmyeongjeon Hall,37.566627000000004,126.972518
attractions,4440129,4.5,예술의전당 오페라하우스 자유소극장,Yesuli Jeondang Operahouse Jayu Sokukjang,37.481085,127.015231
attractions,4798598,5.0,관훈갤러리,Kwanhoon Gallery,37.571796,126.98676699999999
attractions,4798608,4.625,인사아트센터,Insa Art Center,37.573885,126.984576
attractions,4798677,4.0,춘원당한방 박물관,Choonwondang Museum of Korean Medicine,37.571492,126.990201
attractions,4798710,4.7,송파나루공원,Songpa Naru Park,37.511786,127.103757
attractions,7154877,4.4,국립중앙도서관,The National Library of Korea,37.497284,127.0032
attractions,7272329,4.666666667,호림 박물관 신사 분관,Horim Museum Sinsa,37.522698,127.03633700000002
attractions,7353801,4.5,손기정 기념관,Son Kee Chung Memorial Hall,37.556148,126.965373
attractions,7717447,4.285714286,환구단,Hwangudan Altar,37.564465999999996,126.979984
attractions,7717516,3.827586207,국립 한글 박물관,National Hangeul Museum,37.521087,126.980699
attractions,7738848,3.0,디보 빌리지,Dibo Village,37.570961,127.021305
attractions,7891673,4.2,일민미술관,Ilmin Museum of Art,37.569548,126.97796799999999
attractions,7891676,3.777777778,가든파이브,Garden 5,37.477651,127.12498000000001
attractions,7891834,4.0,광진교8번가,Riverview 8th Avenue,37.540109,127.12101399999999
attractions,7891907,3.571428571,포스코센터,POSCO Art Museum,37.505819,127.05612099999999
attractions,7891908,3.285714286,국립서울과학관,The Seoul National Science Museum,37.582388,126.99691499999999
attractions,7891913,4.0,난지미술창작스튜디오,Nanji Art Studio,37.569658000000004,126.879811
attractions,7891916,5.0,아르코 예술 극장,Arko Arts Theater,37.581187,127.00298799999999
attractions,7891917,4.25,약현성당,Yakhyeon Catholic Church,37.559137,126.967176
attractions,7891918,4.333333333,소마미술관,Soma Museum of Art,37.520352,127.115397
attractions,7891933,5.0,갤러리 학고재,Hakgojae Gallery,37.580263,126.98023300000001
attractions,7891934,4.125,성곡미술관,Sungkok Art Museum,37.57318,126.969733
attractions,7891943,4.571428571,몽촌토성,Mongchontoseong Fortress,37.520352,127.115397
attractions,7891945,3.5,하이브랜드 프리미엄 아울렛,Hi Brand Premium Outlet,37.462468,127.03693
attractions,7891946,4.777777778,서울성공회성당,Seoul Anglican Cathedral,37.567257,126.975554
attractions,7891951,3.8,엠플라자,M Plaza,37.562537,126.985161
attractions,7891956,4.0,가락시장,Garak Market,37.492609,127.111778
attractions,7891981,5.0,김종영미술관,Kim Chong Yung Museum,37.613064,126.97748600000001
attractions,7891989,3.333333333,윤봉길 의사 기념관,The Memorial to the Patriot Yun Bonggil,37.471323999999996,127.036748
attractions,7892011,4.285714286,길동생태공원,Gildong Ecological Park,37.538264,127.15460800000001
attractions,7892016,4.2,뚝섬 아름다운 나눔장터,Ttukseom Flea Market,37.529361,127.07396100000001
attractions,7892033,4.0,방학동 도깨비시장,Banghak Dokkaebi Market,37.665225,127.033149
attractions,7892121,4.666666667,한의약 박물관,Seoul Yangnyeongsi Herb Medicine Museum,37.577808000000005,127.03766499999999
attractions,7892126,4.0,대각사,Daegaksa Temple,37.573678,126.99191499999999
attractions,7892447,3.0,강남관광정보센터,Gangnam Tourist Information Center,37.526839,127.027041
attractions,7892528,3.0,대중음악전시관,K-Pop Music Exhibition Hall,37.520352,127.115397
attractions,7892561,5.0,경희대학교 한의학역사박물관,The Museum of Korean Medical History,37.59479,127.051794
attractions,7980918,5.0,도산 안창호 기념관,Dosan Ahn Chang Ho Memorial Hall,37.523944,127.03554
attractions,7987267,4.444444444,청운공원,Chungun Park,37.590739,126.966366
attractions,7987806,4.0,서소문공원,Seosomun Park,37.560904,126.968318
attractions,8076992,5.0,갤러리 현대,Gallery Hyundai,37.577224,126.97988899999999
attractions,8077234,4.5,도봉문화정보도서관,Dobong Culture Information Library,37.644597999999995,127.043875
attractions,8077812,4.0,강남아트홀,Gangnam Arthall,37.500114,127.02486499999999
attractions,8121809,5.0,한국잡지박물관,Korean Magazine Museum,37.519758,126.93025300000001
attractions,8121817,4.0,경희대학교 자연사박물관,Kyunghee University Natural History Museum,37.595690000000005,127.05283500000002
attractions,8123881,4.666666667,강북 문화정보 도서관,Gangbook Culture Information Library,37.625027,127.03606
attractions,8317410,3.0,현대원서공원,Wonseo Park,37.578146000000004,126.988662
attractions,8404036,4.4,인사동 홍보관 관광안내소,Insadong P.R & Tourist Information Center,37.573696000000005,126.983571
attractions,8591663,5.0,동양 예술 극장,Dongyang Art Center,37.584578,127.002264
attractions,8591974,4.333333333,영화사,Yeonghwasa Temple,37.554337,127.098279
attractions,8693250,3.375,목동종합운동장,Mokdong Stadium,37.530646000000004,126.881028
attractions,9582763,4.0,그린월,Green Wall,37.566612,126.97811000000002
attractions,9586394,4.0,석조전 대한제국역사관,Daehan Empire Historical Museum,37.565882,126.97493899999999
attractions,9719010,4.571428571,독도체험관,Dokdo Museum Seoul,37.562367,126.968603
attractions,9736432,3.5,BK성형박물관,BK Plastic Surgery Museum,37.516125,127.020449
