class,placeId,name_kor,name_eng,latitude,longitude
hotels,10038332,XYM 부티크 호텔,Boutique Hotel Xym,37.50938,127.064384
hotels,10172901,K-그랜드 호스텔 명동,,37.562878,126.98515
hotels,10183757,호스텔 88 서울 크라운,,37.56299,126.92639
hotels,10189330,류게스트하우스,,37.523125,127.02618
hotels,10205834,티마크 그랜드 호텔 명동,Tmark Grand Hotel Myeongdong,37.55831,126.97836
hotels,10205977,마중하우스,Majung Haus,37.5526,126.97573
hotels,10299463,Guest House ABOUT,Guest House ABOUT,37.5628,127.00823
hotels,10331620,호스텔하루,Hostel HARU,37.56893,126.98434
hotels,10380258,이비스 앰배서더 서울 동대문,,37.566307,127.00208
hotels,10399655,보눔1957 한옥 스테이 앤 호텔,Bonum 1957 Hanok Stay and Hotel,37.581764,126.98486
hotels,10428145,호텔 소울하다,Hotel Soulhada,37.49894,127.03245
hotels,10447640,모노하우스버젯,Mono House Budget,37.562973,126.924355
hotels,10449106,Stay Hotel Gangnam,Stay Hotel Gangnam,37.499454,127.03539
hotels,10464266,필스테이 명동 센터럴 호텔,Philstay Myeongdong Central Hotel,37.56476,126.98461
hotels,10483549,호텔스카이파크 킹스타운동대문점,Hotel Skypark Kingstown Dongdaemun,37.56894,127.00771
hotels,10514149,아만티 호텔 서울,,37.557198,126.918816
hotels,10543135,게스트하우스 파자마파티,Guesthouse Pajamaparty,37.56464,126.923744
hotels,10597697,정 하우스 홍대,Jeong House Hongdae,37.558483,126.92813
hotels,10636497,컴온 게스트하우스 명동,Come On Guesthouse Myeongdong,37.55967,126.99583
hotels,10637576,시타딘 한리버 서울,Citadines Han River Seoul,37.540787,126.89071
hotels,10641837,아트몬스테이 게스트하우스,Artmonstay Guesthouse,37.557392,126.98523
hotels,10692374,호텔28 명동,Hotel28 Myeongdong,37.564274,126.98392
hotels,10750332,K게스트하우스 동대문 프리미엄,,37.563656,127.00682
hotels,10766180,다다름 게스트하우스,,37.507412,126.91044
hotels,10794734,게스트하우스 수,Guesthouse Soo,37.579918,126.96798
hotels,10999937,코코모 호텔,,37.502,126.88334
hotels,1112201,비원 게스트하우스,Beewon Guest House,37.57611,126.98986
hotels,11444263,칠리게스트하우스,Chilli Guesthouse,37.556274,126.91902
hotels,1149130,필스테이 명동역점,Philstay Myeongdong Station,37.561653,126.98541
hotels,1149165,미오 II 디자인 레지던스,Mmmio II Design Residence,37.565475,126.99161
hotels,1150903,영빈 호텔,Youngbin Hotel,37.562958,127.00564
hotels,11626607,호텔 엔트라 강남,,37.524338,127.048325
hotels,1162688,레이크 호텔,,37.506706,127.10095
hotels,11667433,브릭스 호텔,,37.59995,126.920975
hotels,11704055,K게스트하우스 동대문5호점,K-Guesthouse Dongdaemun 5,37.56533,127.00686
hotels,11725904,  강남,Glad Live Gangnam,37.50825,127.03635
hotels,11725914,참 한옥 게스트 하우스,Charm Hanok Guest House,37.575756,126.989525
hotels,1174409,세림호텔,Saerim Hotel,37.573475,126.984474
hotels,1175377,한강 호텔,Han Kang Hotel,37.548027,127.10973
hotels,1175419,호텔 프린세스,,37.527367,127.03664
hotels,11804600,에이퍼스트호텔 명동,,37.56762,126.98096
hotels,11807873,소풍 더 어반,,37.562313,126.92641
hotels,11827962,호텔카파쓰,,37.50158,127.04105
hotels,11832219,나비호스텔,,37.557926,126.92483
hotels,11836364,강남 선시티게스트하우스,,37.51553,127.02083
hotels,11846421,서촌 가치 비엔비,Seochon Gachi B&amp;B,37.579556,126.96612
hotels,11857609,24게스트하우스 신촌에비뉴,24 Guesthouse Sinchon Avenue,37.55789,126.93765
hotels,11858504,OPPA 호스텔,,37.553436,126.9359
hotels,1186443,뉴 코리아 호텔,New Korea Hotel,37.55827,126.97956
hotels,11864693,필스테이 동국대점,Philstay Dongguk Univ.,37.564465,127.0081
hotels,11875163,칸쿤,,37.48463,127.01285
hotels,11893477,송린 게스트하우스,,37.555676,126.92514
hotels,11920134,써니힐 호스텔 홍대,,37.56055,126.92105
hotels,11925083,동화 킴스 호텔,,37.60946,126.975334
hotels,11928170,공간게스트하우스,,37.558083,126.99558
hotels,11930699,아트뷰 호텔,Artview Hotel,37.56293,126.992226
hotels,11946590,그리드인호텔,Grid Inn Hotel,37.5696,126.99133
hotels,11959021,아임그린게스트하우스,I&#39;m Green Guesthouse,37.59227,126.99284
hotels,11961013,영등포동 6가 71-2,,37.520554,126.90373
hotels,1196129,호스텔 코리아,,37.575535,127.020515
hotels,1196458,리앤노 게스트하우스,,37.561447,126.92109
hotels,11964803,타임트래블러 릴렉스,,37.56042,126.93024
hotels,11964809,서울숲 게스트하우스,,37.477543,127.00857
hotels,1196533,바나나 백패커스,,37.54635,126.97903
hotels,11997899,모노하우스 홍대 3호점,,37.55427,126.918915
hotels,12019574,호텔도트명동,Hotel Dott Myeongdong,37.56182,126.987915
hotels,1202980,홍대 게스트하우스,,37.556564,126.92308
hotels,12033515,호텔더디자이너스 건대점,Hotel The Designers Kondae,37.558506,127.07653
hotels,12079226,호텔조커,Hotel Joker,37.526432,126.88393
hotels,12079770,디에이스호텔,,37.506912,127.05395
hotels,12079886,호텔유리앤,Hotel URI&amp;,37.50894,127.05771
hotels,12094531,도미인 서울 강남,Dormy Inn Seoul Gangnam,37.505795,127.02938
hotels,12101833,알로프트 서울 명동,Aloft Seoul Myeongdong,37.56248,126.98169
hotels,12105731,라마다앙코르서울마곡호텔,,37.56808,126.82634
hotels,12133931,필스테이 명동점,Philstay Myeongdong,37.564102,126.98537
hotels,12154191,포레스타 호텔,,37.562492,127.03515
hotels,12154415,호텔 가온 종로,,37.5705,126.98706
hotels,12171858,길버트 게스트하우스,,37.582253,127.00255
hotels,12188178,호텔이노스테이,Hotel Inno Stay,37.565876,127.05395
hotels,12193383,레피하우스,Refee house,37.523746,127.05243
hotels,12196120,집게스트하우스,,37.547565,126.914925
hotels,12196520,나누게스트하우스케이팝,Nanu Guesthouse KPOP,37.555145,126.91865
hotels,12221592,나인트리 프리미어 호텔 명동2,,37.564316,126.99087
hotels,12222316,스탠다드 호텔,,37.551064,126.86344
hotels,12222773,뜨랑블루 호텔,,37.48453,126.92682
hotels,12222795,K게스트하우스 서울시티점,K-Guesthouse Seoul City,37.56673,126.99011
hotels,12222818,케이게스트하우스 동대문4,,37.563644,127.03066
hotels,12231518,호텔스타프리미어 역삼점,Yeoksam Hotel Star Premier,37.502842,127.04027
hotels,12231683,호텔 루체브릿지,,37.558964,126.83719
hotels,12231972,모스크,MOSC,37.533035,126.99554
hotels,12231981,에그하우스 동대문점,,37.572052,127.011696
hotels,12238832,필스테이 명동메트로,,37.56306,126.98572
hotels,12242034,호텔 GMS,,37.51732,126.90914
hotels,12242440,신라스테이 서초,Shilla Stay Seocho,37.48936,127.03014
hotels,12244969,킴스테이 게스트하우스,KimStay,37.55643,126.93643
hotels,12251056,한류 호스텔,Hallyu Hostel,37.564674,127.00225
hotels,12257734,K그랜드호스텔 동대문,K-Grand Hostel Dongdaemun,37.563023,127.03201
hotels,12264023,딜라이트  호텔,,37.51535,127.1093
hotels,12264115,낙원장 호텔,Nagwonjang Hotel,37.57296,126.98993
hotels,12273316,호텔 더 디자이너스 서울역,Hotel The Designers Seoul Station,37.545483,126.97157
hotels,12287729,G2 호텔,G2 Hotel,37.56331,126.99033
hotels,12290061,로얄스퀘어 호텔,Royal Square Hotel,37.560467,126.81036
hotels,12292815,Hoseong Guesthouse,Hoseong Guesthouse,37.556355,126.947365
hotels,1230995,호텔아르누보 역삼,,37.503487,127.04299
hotels,12310284,시그니엘 서울,,37.512707,127.10255
hotels,12315022,호텔렉스빌,Hotel Rexvill,37.51818,126.910645
hotels,1236989,계림장 게스트하우스,Gyerimjang Guest House,37.559822,126.985916
hotels,1236995,인사동미니호텔,Mini Hotel Insa,37.575054,126.98546
hotels,12377445,스타 호스텔 명동 패밀리,,37.560722,126.99541
hotels,12388243,나인브릭호텔,9Brick Hotel,37.55391,126.920364
hotels,12396150,대영호텔 서울,,37.558346,126.9803
hotels,12396407,K-그랜드 호텔 앤 게스트 하우스 서울,,37.55274,126.97222
hotels,12419900,명동선샤인 게스트하우스,,37.56202,126.98645
hotels,12430674,친구 게스트하우스,Chingu Guesthouse,37.545494,126.92203
hotels,12434582,WD호텔,,37.48545,126.92929
hotels,12454272,팝 앳 이태원 게스트하우스,Pop at Itaewon Guesthouse,37.533623,126.98939
hotels,12491652,레드스톤게스트하우스,,37.559742,126.919914
hotels,12511642,호텔 파크 힐 명동,Hotel Park Hill Myeongdong,37.55769,126.98165
hotels,12519557,아마존게스트하우스,Amazon Guesthouse,37.532642,126.99304
hotels,12527338,미조 호텔,,37.56172,126.98539
hotels,12542874,호텔 파크하비오,Hotel Parkhabio,37.481945,127.123474
hotels,12547367,더리센츠동대문호텔,The Recenz Dongdaemun Hotel,37.56209,127.06161
hotels,12550700,베니키아 프리미어 여의도 호텔,Benikea Premier Yeouido Hotel,37.51361,126.92151
hotels,12550987,디자인호텔 다니엘 캄파넬라,,37.637356,127.02587
hotels,12558233,또와 하우스,,37.558346,126.98449
hotels,12581921,라비앙호텔,Hotel Lavieen,37.511154,127.082184
hotels,12597060,브라우니 게스트하우스,,37.559444,126.92509
hotels,12604521,H 에비뉴 호텔 이대점,H Avenue Hotel Ewha Univ.,37.556515,126.942764
hotels,12639491,이화 호텔,Ehwa Hotel,37.564144,126.98797
hotels,12667390,베스트인 부띠크,Vestin Boutique,37.56151,126.99212
hotels,12670129,K그랜드호스텔 이대,,37.556973,126.94308
hotels,12674038,호텔부티크나인 능동점,Hotel Boutique 9 Neungdong,37.55672,127.080185
hotels,12690380,그랜드 머큐어 앰배서더 서울 용산,,37.531742,126.96329
hotels,12698628,이비스 스타일 앰배서더 서울 용산,ibis Styles Ambassador Seoul Yongsan,37.53173,126.96336
hotels,12698724,블루마운틴 명동,,37.5631,126.98583
hotels,12703706,알 게스트하우스,,37.55365,126.96662
hotels,12707152,도봉 호텔 베이 204,,37.667793,127.043625
hotels,12707649,노보텔 스위트 앰배서더 서울 용산,Novotel Suites Ambassador Seoul Yongsan,37.53173,126.96337
hotels,12707683,노보텔 앰배서더 서울 용산,Novotel Ambassador Seoul Yongsan,37.531742,126.96335
hotels,12720709,호텔 A314,A314 Hotel,37.53785,127.07778
hotels,12726131,동대문하우스,,37.575066,127.027466
hotels,12730428,홍대 레이지 폭스 덴 호스텔,Hongdae Lazyfox Den Hostel,37.553123,126.91537
hotels,12730569,피에스 게스트하우스 이태원,P.S. GuestHouse Itaewon,37.537365,126.988914
hotels,12730914,에이치에비뉴 이대점,H Avenue Hotel Shinchon &amp; Idae,37.55658,126.9424
hotels,12730919,디 에블린 동대문 호텔,,37.5614,127.067535
hotels,12789877,필하우스,Fillhouse,37.57157,127.00762
hotels,12856116,라마다 서울 신도림 호텔,Ramada Seoul Sindorim Hotel,37.506298,126.88539
hotels,12940832,로드 명동,Road Myeongdong,37.561836,126.99399
hotels,12951821,퍼스트스테이호텔,First Stay Hotel,37.562645,126.97723
hotels,12956021,더스테이트선유호텔,The State Sunyu Hotel,37.538372,126.89317
hotels,13009660,코멧 게스트하우스,Comet Guesthouse,37.532303,126.972916
hotels,13084680,펠리스까사,Feliz Casa,37.562126,127.00075
hotels,1310694,호텔 아카시아,Benikea Hotel Acacia,37.566372,127.0026
hotels,13131314,Hi Jun Guesthouse,Hi Jun Guesthouse,37.56457,126.92493
hotels,13166512,갤럭시호텔,Galaxy Hotel,37.526222,126.90887
hotels,13283029,글래드 강남 코엑스 센터,GLAD Gangnam COEX Center,37.50899,127.064445
hotels,13293144,호텔 토마스 명동,Hotel Thomas Myeongdong,37.563477,126.978294
hotels,13319648,L7강남,L7 Gangnam,37.505558,127.05184
hotels,13361835,부띠끄호텔 Young Inn,Boutique Hotel Young Inn,37.55627,126.99372
hotels,13369640,사보이호텔,Savoy Hotel,37.56195,126.9844
hotels,13392050,ENA스위트호텔,ENA Suite Hotel Namdaemun Seoul,37.562298,126.97388
hotels,13394600,호텔해담채가산,Hotel Haedamchae Gasan,37.479767,126.88837
hotels,13397346,호텔더디자이너스 디디피,Hotel The Designers DDP,37.563778,127.004265
hotels,13401342,루미아호텔2,Lumia Hotel 2,37.57383,127.02217
hotels,13402121,에이치에비뉴 호텔 건대점,H Avenue Hotel Kondae,37.546524,127.06665
hotels,13414457,노블호텔,Noble Hotel,37.576874,126.989456
hotels,13426084,L7홍대,L7 Hongdae,37.555782,126.92142
hotels,13781380,포포인츠 바이 쉐라톤 서울 강남,,37.520008,127.0283
hotels,13819581,글래드 마포,Glad Mapo,37.543037,126.95146
hotels,13846825,코트야드 서울 보타닉 파크,Courtyard Seoul Botanic Park,37.56705,126.82945
hotels,1392824,힐 하우스 호텔,Hotel Hill House,37.556946,126.98192
hotels,13965841,페어필드 바이 메리어트 서울호텔,Fairfield by Marriott Seoul,37.51696,126.90914
hotels,13984475,플렉스홈,FlexHome Guest House,37.553093,126.90547
hotels,14090461,엠펠리체 호텔,M Felice Hotel,37.567795,126.82296
hotels,14159708,지브로 S 게스트하우스,Zibro S Guesthouse,37.54818,126.92388
hotels,14159727,노보텔 앰배서더 서울 동대문 호텔,,37.56616,127.00426
hotels,14199590,호텔쿠레타케소 인사동,Hotel Kuretakeso Insadong,37.572357,126.98717
hotels,1462081,베니키아호텔 플라워,Benikea Hotel Flower,37.58478,127.05065
hotels,1462343,메이트 호텔 서울,Mate Hotel Seoul,37.52993,126.84094
hotels,1465296,롯데 시티 호텔 마포,Lotte City Hotel Mapo,37.544697,126.950714
hotels,1467802,아모렉스 호텔,Amourex Hotel,37.563698,127.03532
hotels,14789575,수송 게스트 하우스,Soo Song Guest House,37.573017,126.981155
hotels,1499077,호텔 대우인,Hotel Daewoo Inn,37.56286,126.97801
hotels,1535250,토요코 인 서울 동대문,Toyoko Inn Seoul Dongdaemun,37.564495,127.00914
hotels,1557869,코트야드 메리어트 서울 타임스퀘어,Courtyard by Marriott Seoul Times Square,37.517864,126.90402
hotels,1569561,시티 파크 호텔,,37.576466,126.98982
hotels,1575192,그레이프 가든 하우스,,37.554188,126.92647
hotels,1625995,봉 하우스,Bong House,37.584225,126.99701
hotels,1626230,백패커스 인사이드,,37.584476,126.99776
hotels,1640728,더 클래식 500 이그제큐티브 레지던스 펜타즈,The Classic 500 Executive Residence Pentaz,37.538776,127.07108
hotels,1643621,강남 아르누보 씨티 II,,37.49342,127.02796
hotels,1644474,굿스테이 피터캣 호텔 인사동,Goodstay Petercat Hotel Insadong,37.574947,126.98942
hotels,1653156,임피리얼 팰리스 부티크 호텔,Imperial Palace Boutique Hotel,37.53517,126.99839
hotels,1657213,호텔 마레,Hotel Mare,37.56354,127.057625
hotels,1718120,M. 비즈 호텔,,37.507664,127.055244
hotels,1741199,고궁 호텔,Gogung Hotel,37.575375,126.997284
hotels,1745679,행복한 눈물 호텔,Amfree Hotel,37.56949,127.0697
hotels,1745681,아미가 모텔,,37.572754,126.99943
hotels,1745757,갤러리아 호텔,,37.495945,126.84566
hotels,1745764,호텔 트리아,Tria Hotel,37.503063,127.03958
hotels,1745768,상주호텔,,37.510017,127.08054
hotels,1745779,세화 호스텔,,37.574715,126.99028
hotels,1749320,노블레스 관광 호텔,,37.65513,127.05934
hotels,1754759,모텔B,Motel B,37.56771,126.969086
hotels,1815319,준희빈 호텔,Boutique Hotel Juni Bin,37.548344,126.91118
hotels,1887763,호텔 비즈 종로 인사동,,37.573334,126.9884
hotels,1903752,컴인 게스트하우스,Come Inn Guesthouse,37.552704,126.92292
hotels,1905601,호텔 스카이파크 명동 I,,37.561417,126.9842
hotels,1987696,베스트 웨스턴 프리미어 구로 호텔,,37.483154,126.89897
hotels,1996081,김치 홍대 게스트하우스,,37.558956,126.919876
hotels,2054116,호텔야자 종로점,,37.57288,126.98892
hotels,2100902,라까사호텔,Hotel La Casa,37.52219,127.01927
hotels,2103201,스튜디오 41st,Studio 41st,37.561543,126.921684
hotels,2150227,오슬로호텔,Oslo Hotel,37.48608,127.0129
hotels,2150233,아이엠티 호텔,Imt Hotel,37.48679,127.013
hotels,2150290,히트 호텔,Hit Hotel,37.511242,127.0797
hotels,2150334,호텔 톰지,Hotel Tomgi,37.500626,127.0391
hotels,2150439,호텔 스토리,Hotel Story,37.58203,127.02106
hotels,2150692,녹스 호텔,Nox Hotel,37.502586,127.03969
hotels,2151168,라마다 서울 동대문,Ramada Seoul Dongdaemun,37.56586,127.002525
hotels,2153731,윤게스트하우스,Yun Guest House,37.558086,126.98469
hotels,2159977,쉐라톤 서울 디큐브 시티 호텔,Sheraton Seoul D Cube City Hotel,37.509,126.88978
hotels,2179387,나나 레지던스,,37.5618,126.98797
hotels,2179397,마마 게스트하우스 명동,Mama Guesthouse Myeongdong,37.558475,126.98837
hotels,2202393,호텔 아드리게,Hotel Adlige,37.500793,127.038895
hotels,2202395,호텔 스카이파크 명동 II,Hotel Skypark Myeongdong II,37.564716,126.98482
hotels,2202400,호텔 스카이파크 명동 III,Hotel Skypark Myeongdong III,37.561356,126.987236
hotels,2210698,호텔 코지 명동,Hotel Cozy Myoungdong,37.560642,126.97938
hotels,2212705,두 게스트하우스 북촌 1,Doo guesthouse Bukchon,37.579468,126.98647
hotels,2226404,H2O 게스트하우스,H2O Guesthouse,37.566883,126.994995
hotels,2233911,호텔 아르누보 서초,,37.496033,127.02087
hotels,2258766,대한장 모텔,Daehanjang Motel,37.560787,126.99509
hotels,2293670,리즈 호텔,Liz Hotel,37.49228,127.01347
hotels,2301772,리버사이드 호텔 서울,The Riverside Hotel Seoul,37.518574,127.01814
hotels,2303934,자자 백팩커스 호스텔,Zaza Backpackers Hostel,37.558784,126.9864
hotels,2314093,뉴월드호텔,Hotel New World,37.544285,126.97345
hotels,2314103,밀라노 모텔,Milano Motel,37.56427,127.03621
hotels,2337202,호텔 아마레,Hotel Amare,37.57149,126.9897
hotels,2337371,비브클래식호텔,Hotel VIV Classic,37.568287,127.06923
hotels,2367780,호텔 아이린 시티,Hotel Irene City,37.5621,126.97806
hotels,2393710,스탠포드 호텔 서울,Stanford Hotel Seoul,37.581818,126.88676
hotels,2415959,벤허모텔,Motel Benhur,37.57177,127.000305
hotels,2457276,굿스테이 피터캣호텔 홍대,,37.553665,126.93586
hotels,2471997,대림 레지던스,Daelim Residence,37.498734,126.88258
hotels,2472017,비하우스,,37.56263,126.92355
hotels,2508404,롯데 시티 호텔 김포공항,,37.564026,126.80233
hotels,2537406,충무로 레지던스 호텔,Chungmuro Residence &amp; Hotel,37.562542,126.99938
hotels,2537451,투비인호텔,Two Be In Hotel,37.53756,127.13866
hotels,2537498,더 뷰 호텔,,37.516174,127.11156
hotels,2537527,렉스 관광 호텔,LEX Tourist Hotel,37.514362,127.020454
hotels,2539264,문 게스트하우스,Moon Guesthouse,37.576065,126.98851
hotels,2539382,초콜릿호텔,,37.497192,127.02918
hotels,2539454,캘리포니아 호텔 서울 서초,,37.485107,127.01464
hotels,2542837,킴스 패밀리 게스트하우스,,37.55579,126.91896
hotels,2635666,호텔 GS,,37.56909,126.99207
hotels,2641870,보그 호텔,Vogue Hotel,37.55311,126.93594
hotels,2641878,신촌 Y,Shinchon Y,37.5534,126.936165
hotels,2642150,아모텔,,37.554134,126.93646
hotels,2642164,리베라 모텔,Riviera Motel,37.553642,126.93644
hotels,2642177,호텔 스타,Hotel Star,37.499535,127.03545
hotels,2642183,앳눈 호텔,,37.553864,126.935974
hotels,2642273,아나 호텔,,37.501152,127.04054
hotels,2658455,초콜렛 트리,,37.55336,126.9352
hotels,2658471,달콤 게스트하우스,,37.56348,126.99671
hotels,2662475,팝 호텔 1,Pop Hotel 1,37.570946,126.98995
hotels,299152,베스트웨스턴프리미어서울가든호텔,Best Western Premier Seoul Garden Hotel,37.540817,126.94821
hotels,299154,인터컨티넨탈 서울 코엑스,InterContinental Seoul COEX,37.513355,127.057365
hotels,299502,뉴서울 호텔,New Seoul Hotel,37.56792,126.97804
hotels,299504,호텔 비젼,Hotel Vision,37.564575,127.03632
hotels,299505,호텔 동대문,Hotel Dongdaemun,37.57092,127.01015
hotels,299533,이비스 스타일 앰배서더 서울 강남,ibis styles Ambassador Seoul Gangnam,37.505074,127.05708
hotels,299536,노보텔 앰배서더 서울 강남 호텔,Novotel Ambassador Seoul Gangnam,37.505363,127.02844
hotels,299537,그랜드 앰배서더 서울 어소시에이티드 풀만 호텔,,37.560192,127.00236
hotels,299538,노보텔 앰배서더 독산,Novotel Ambassador Seoul Doksan,37.46746,126.898
hotels,301253,서울신라호텔,The Shilla Seoul,37.556087,127.00512
hotels,301605,오크우드 프리미어 코엑스 센터,,37.51089,127.05813
hotels,301815,서울 웨스틴 조선 호텔,The Westin Chosun Seoul,37.56446,126.9798
hotels,301817,그랜드 워커힐 서울,Grand Walkerhill Seoul,37.555775,127.11091
hotels,302237,르 메르디앙 서울,Le Meridien Seoul,37.505142,127.02739
hotels,306105,임피리얼 팰리스 서울,,37.514023,127.03588
hotels,306113,오라카이 인사동 스위츠,Orakai Insadong Suites,37.57327,126.98718
hotels,306114,그랜드 힐튼 서울,Grand Hilton Seoul,37.59,126.934746
hotels,306115,그랜드 하얏트 서울,,37.540142,126.997154
hotels,306118,그랜드 인터컨티넨탈 서울 파르나스,Grand InterContinental Seoul Parnas,37.508766,127.06103
hotels,306123,인사동 크라운호텔,Insadong Crown Hotel,37.573742,126.98795
hotels,306125,크라운 호텔 이태원,Crown Hotel Itaewon,37.531387,126.99058
hotels,306126,호텔 피제이 명동,,37.56476,126.99569
hotels,306127,코리아나 호텔,Koreana Hotel,37.568016,126.97659
hotels,306128,롯데 호텔 월드,,37.51177,127.1003
hotels,306130,롯데 호텔 서울,Lotte Hotel Seoul,37.56577,126.98074
hotels,306132,밀레니엄 서울 힐튼,,37.55531,126.97582
hotels,306136,호텔 프레지던트,Hotel President,37.565567,126.9794
hotels,306139,더 플라자,,37.56463,126.978065
hotels,306145,로얄 호텔 서울,,37.564217,126.98564
hotels,306168,호텔 리베라,Hotel Riviera,37.523968,127.05478
hotels,307024,게스트하우스 코리아,Guesthouse Korea,37.576668,126.99103
hotels,307032,서울 백팩커스,Seoul Backpackers,37.557167,126.97717
hotels,307040,켄싱턴 호텔 여의도,Kensington Hotel Yoido,37.53051,126.92216
hotels,307042,서울 YMCA 관광호텔,Seoul YMCA Tourist Hotel,37.570198,126.98536
hotels,308007,세종 호텔,Sejong Hotel,37.561127,126.98807
hotels,309826,해밀톤 호텔,Hamilton Hotel Seoul,37.534782,126.993996
hotels,3136705,에어호스텔 서울,Air Hostel Seoul,37.571625,127.00347
hotels,3154945,뉴 힐탑 호텔,New Hilltop Hotel,37.51125,127.03197
hotels,3154953,머큐어 서울 앰배서더 강남 쏘도베,Mercure Seoul Ambassador Gangnam Sodowe,37.5015,127.03552
hotels,3161529,해피 가든 게스트하우스,,37.55804,126.98586
hotels,3164518,제이비스 호텔,,37.50515,127.05283
hotels,3164521,남현당 게스트하우스,Namhyundang Guesthouse,37.5738,126.98539
hotels,3189967,DH 네상스 호텔,DH Naissance Hotel,37.592617,127.01854
hotels,3191662,에이블 호스텔 동대문,Able Hostel in Dongdaemun,37.565037,127.00527
hotels,3197505,해밀 한옥 게스트하우스,,37.57661,126.99132
hotels,3218799,엘름 트리 게스트하우스,Elm Tree Guest House,37.5615,126.97852
hotels,323987,호텔 프린스 서울,Prince Hotel Seoul,37.560825,126.98641
hotels,3249513,명동 에코 게스트하우스,,37.560448,126.98659
hotels,3295599,곳,The Place Seoul,37.579655,126.987366
hotels,3326049,취운정,Chiwoonjung,37.583202,126.9835
hotels,3344577,티파니 호텔,,37.548,126.82001
hotels,3346189,케이팝 레지던스 명동 1,K-POP Residence Myeongdong 1,37.563442,126.98522
hotels,3356431,블루밍 서비스드 레지던스 호텔,Blooming Serviced Residence Hotel,37.500706,127.03883
hotels,3356500,베스틴 레지던스 명동,,37.56038,126.98712
hotels,3358813,나인 스타 호텔,,37.556465,126.93798
hotels,3358977,케이팝 게스트하우스 서울역,,37.553226,126.97458
hotels,3368813,호텔 첼로,Hotel Cello,37.486168,127.0135
hotels,3368857,게스트하우스 명동,,37.56113,126.9876
hotels,3369164,마루 게스트하우스,Guesthouse The Maru,37.54976,126.96921
hotels,3369181,호텔 더 디자이너스 삼성,,37.507282,127.05543
hotels,3370845,크립 49 게스트하우스,Crib 49 Guesthouse,37.55708,126.98565
hotels,3370998,블레싱 인 서울,Blessing In Seoul,37.58672,127.05214
hotels,3389037,아벤트리 호텔 종로,Hotel Aventree Jongno,37.573086,126.98317
hotels,3389245,서울 53 호텔,Seoul 53 Hotel,37.575,126.98944
hotels,3477056,코스테이,,37.531998,126.8606
hotels,3477065,서울앤호텔 동대문,Seoul N Hotel Dongdaemun,37.573444,127.02077
hotels,3477071,엔포시즌,N Fourseason,37.557014,126.97975
hotels,3477077,엔조이 서울,NJoy Seoul,37.556686,126.923
hotels,3477083,호텔 스카이파크 센트럴 명동,Hotel Skypark Central Myeongdong,37.564648,126.98524
hotels,3477158,콘래드 서울,,37.525414,126.92662
hotels,3477194,케이팝 레지던스 명동 2,,37.56289,126.9856
hotels,3479249,이태원 백팩커스,,37.534,126.99994
hotels,3497931,ICOS 게스트하우스,,37.554768,126.9385
hotels,3531770,유기농 게스트하우스,Yooginong Guesthouse,37.553043,126.90741
hotels,3540785,비 마이 게스트하우스,B My Guesthouse,37.5586,126.983894
hotels,3568790,오렌지 게스트하우스,Orange Guesthouse,37.554794,126.91895
hotels,3568908,고운당,Go Woon Dang,37.578903,126.97275
hotels,3571247,라온 게스트하우스,,37.57755,126.981155
hotels,3571251,클릭 호텔,,37.56192,126.9884
hotels,3571309,루이 호텔,,37.556335,126.9382
hotels,3575113,모텔 제로,Motel Zero,37.57456,126.99685
hotels,3575356,센터마크 호텔,,37.572346,126.98434
hotels,3575583,서울 로프트 아파트먼트 ,Seoul Loft Apartments,37.576424,126.99727
hotels,3581563,코지 게스트하우스,Cozzzy Guesthouse,37.558395,126.91867
hotels,3595039,애플 백패커스 게스트하우스,Apple Backpackers Guesthouse,37.57354,126.99102
hotels,3595040,스타즈 호텔 명동 1호점,Staz Hotel Myeongdong 1,37.56695,126.991425
hotels,3595091,북촌 마루 한옥 게스트하우스,,37.58311,126.98742
hotels,3612247,다비드호텔,,37.511047,127.07926
hotels,3616590,모나이 게스트하우스,,37.5365,126.89894
hotels,3618263,휴가 하우스 호스텔,Huga Haus Hostel,37.591137,127.04187
hotels,3618299,야코리아 호스텔 이태원,,37.53437,126.97491
hotels,3618306,호텔 마누,Hotel Manu,37.557076,126.97487
hotels,3618350,E-레지던스,E-Residence,37.513638,127.02103
hotels,3656150,나인트리 호텔 명동,Nine Tree Hotel Myeong-dong,37.561623,126.98592
hotels,3656188,몽 모텔,Mong Motel,37.639526,127.02658
hotels,3661945,에스피@이태원 게스트하우스,SP@Itaewon Guesthouse,37.53545,126.99245
hotels,3682080,아리 하우스 명동,,37.56029,126.98683
hotels,3723601,호텔 아이콘,,37.574944,126.98893
hotels,3723670,펜슬 게스트하우스,,37.560036,126.92548
hotels,3793064,블루 게스트하우스 4,,37.554626,126.91817
hotels,3813528,DW 디자인 레지던스,,37.558285,126.9207
hotels,3813529,청계하우스,,37.56928,126.99869
hotels,3813530,GV레지던스,GV Residence,37.53466,126.99067
hotels,3813590,ZIP 호텔,,37.479477,126.95297
hotels,3813616,메리골드 호텔,,37.55356,126.91949
hotels,3813667,로이하우스,,37.563065,126.92398
hotels,3814456,더스틴 게스트하우스,,37.55553,126.923836
hotels,3814459,게스트하우스 명동 2,Guest House Myeongdong 2,37.560444,126.99076
hotels,3814736,아지트 게스트하우스,,37.55367,127.01064
hotels,3850464,이슈 서울 게스트 하우스,Issue Seoul guest house,37.55472,126.91421
hotels,3855729,옐로우 브릭 종로 호스텔,Yellow Brick Jongno Hostel,37.574627,126.98959
hotels,4006151,코스테이 숙대점,Korstay Sookmyung Women&#39;s Univ.,37.546104,126.97249
hotels,4052408,한옥 게스트하우스 201,Hanok Guesthouse 201,37.580395,126.98542
hotels,4055360,미오 하우스,Mmmio House,37.569824,127.00301
hotels,4071465,더 그랜드 호텔 명동,The Grand Hotel Myeongdong,37.56171,126.98718
hotels,4084323,공심가 게스트하우스,,37.57786,126.9808
hotels,4134726,이비스 앰배서더 서울 인사동,Ibis Ambassador Seoul Insadong,37.57437,126.98944
hotels,4134729,루크홈 명동,Lookhome Myeongdong,37.55833,126.98578
hotels,4134785,SS 게스트하우스 서울역,SS Guest House Seoul Station,37.551495,126.96891
hotels,4134798,미스터 콤마 게스트하우스,,37.558964,126.92018
hotels,4134800,호텔 더 디자이너스 홍대,Hotel The Designers Hongdae,37.551956,126.91764
hotels,4134801,비젼 게스트하우스,Vision Guesthouse,37.509136,127.08513
hotels,4134983,호텔 디바,Diva Hotel,37.567993,127.06934
hotels,4135103,파로스 관광 호텔,Pharos Tourist Hotel,37.511124,127.08135
hotels,4135265,베니키아 호텔 KP,Benikea Hotel KP,37.589397,127.056755
hotels,4135823,국제 명동 하우스,Kukje Myeongdong House,37.559357,126.98865
hotels,4136289,유 게스트 하우스 - 홍대,"U Guesthouse in Hongdae, Seoul",37.549534,126.92065
hotels,4136389,포춘호스텔,Fortune Hostel,37.574547,126.98964
hotels,4137679,마인드 호텔,Mind Hotel,37.47881,126.89095
hotels,4170932,두리 게스트하우스,Duri Guest House,37.591625,127.03713
hotels,4193521,SH 서울 홍대,SH Seoul Hongdae,37.557743,126.92435
hotels,4235369,신신 호텔,,37.562332,126.97904
hotels,4344692,베니키아 Home the M 호텔,,37.563824,126.91317
hotels,4354698,와우 힐스 게스트하우스,,37.552128,126.92662
hotels,4354707,호텔 아로파 남대문,Hotel Aropa Namdaemun,37.563198,126.97808
hotels,4412261,호스텔 코리아 11th - 창덕궁,Hostel Korea 11th - Changdeokgung,37.57624,126.99032
hotels,4412263,프레이저 플레이스 남대문 서울,Fraser Place Namdaemun Seoul,37.56134,126.97631
hotels,4462683,김치 신촌 게스트하우스,Kimchee Sinchon Guesthouse,37.558224,126.92935
hotels,446846,라마다 서울 호텔,Ramada Seoul,37.51066,127.04507
hotels,447944,삼정 호텔,,37.505768,127.031296
hotels,447945,여의도 호텔,Yoido Hotel,37.530167,126.925385
hotels,4504699,이랑 한옥스테이,Irang Hanok Stay,37.581318,126.98898
hotels,4507857,케이스타하우스,Kstar House,37.558083,126.96907
hotels,455446,쉐라톤 서울 팔래스 강남 호텔,Sheraton Seoul Palace Gangnam Hotel,37.500893,127.00167
hotels,455538,을지로 코업레지던스,Euljiro CO-OP Residence,37.56645,127.00553
hotels,455856,메트로 호텔,Metro Hotel,37.565098,126.98372
hotels,455862,동서울 호텔,Hotel Dong Seoul,37.53422,127.09186
hotels,455973,뉴국제호텔,New Kukje Hotel,37.567802,126.97771
hotels,456115,호텔 프리마 서울,Hotel Prima Seoul,37.524548,127.052124
hotels,4608574,JJ 레지던스,JJ Residence,37.55678,126.97852
hotels,4712309,부엉이 게스트하우스,,37.5755,127.020164
hotels,4777343,신디&#39;s B&amp;B,Cindy&#39;s B&amp;B,37.59602,126.96506
hotels,477908,코아텔 쉐르빌,Coatel Chereville,37.493923,127.0279
hotels,4783677,인사동 호스텔,Insadong Hostel,37.57492,126.98463
hotels,4799364,24게스트하우스 신촌 스타일,,37.55702,126.93483
hotels,4884030,문스호스텔,Moon&#39;s Hostel,37.560627,126.99118
hotels,4913610,시어소 호텔,Sieoso Hotel,37.5657,126.991264
hotels,500996,비스타 워커힐 서울,Vista Walkerhill Seoul,37.555218,127.11091
hotels,505891,라이즈 오토그래프 컬렉션,"RYSE, Autograph Collection",37.554543,126.921165
hotels,506101,선샤인 호텔,Hotel Sunshine,37.520542,127.02875
hotels,506110,호텔 썬비,,37.572872,126.98486
hotels,506121,뉴 오리엔탈 호텔,,37.56029,126.98351
hotels,5113510,JW 메리어트 동대문 스퀘어 서울,,37.570164,127.00882
hotels,518444,베스트 웨스턴 프리미어 강남,,37.50634,127.02978
hotels,5250436,써미트 호텔,The Summit Hotel Seoul Dongdaemun,37.562283,127.00664
hotels,5252365,호텔 팩토리,Hotel Factory,37.572067,126.98818
hotels,5287493,스타리아 호스텔,,37.55857,126.98621
hotels,5287499,뉴 썬 게스트하우스 명동,New Sun Guesthouse Myeongdong,37.558018,126.98113
hotels,536020,호텔 M,,37.529613,126.91963
hotels,5460911,티마크 호텔 명동,Tmark Hotel Myeongdong,37.562622,126.99267
hotels,5484623,머뭄 게스트하우스,MuMum Guesthouse,37.580074,126.98726
hotels,5540457,호텔 아트리움,Hotel Atrium Jongno,37.571712,126.99799
hotels,555275,파크 하얏트 서울,Park Hyatt Seoul,37.508526,127.06414
hotels,558398,나이아가라 호텔,,37.549248,126.87861
hotels,569419,강남 패밀리 호텔,Gangnam Family Hotel,37.506218,127.03044
hotels,582965,프로비스타 호텔,Provista Hotel,37.495113,127.01854
hotels,582967,임스 하우스,Yim&#39;s House,37.576378,126.99092
hotels,587051,명동 게스트하우스,Myeongdong Guest House,37.560383,126.9872
hotels,5895849,코업 시티 호텔 BMK,Coop City Hotel BMK,37.495804,126.84492
hotels,5895858,시스앤브로,,37.561123,126.92255
hotels,5895977,이가 정원,Lee&#39;s Garden,37.55905,126.98653
hotels,5895989,24게스트하우스 인사동,24Guesthouse Insadong,37.56923,126.98715
hotels,5896602,제로미네 게스트하우스,Xeromine Guesthouse,37.535477,126.99216
hotels,5897152,서울 글로벌 호스텔,Seoul Global Hostel,37.558334,126.98508
hotels,5963221,골든서울 호텔,Golden Seoul Hotel,37.547832,126.87813
hotels,5970253,호텔파밀리아인,Hotel Familia Inn,37.571964,127.01343
hotels,598299,호텔 아트리움 바비엥2,Hotel Atrium Vabien II,37.565212,126.96767
hotels,602902,웨스턴 코업호텔&amp;레지던스,Western CO-OP Hotel &amp; Residence,37.566414,127.003296
hotels,6034361,유자 게스트하우스,UJA Guesthouse,37.550358,126.91797
hotels,607480,서울 레지던스,,37.503464,127.04779
hotels,6104497,스테이 강남,,37.517773,127.01835
hotels,6104649,모리 게스트하우스,,37.548923,126.93126
hotels,6104780,스위트 컴포트,,37.555805,126.91849
hotels,611304,이비스 앰배서더 서울 명동,Ibis Ambassador Seoul Myeongdong,37.56419,126.98259
hotels,6160747,네오 서울 게스트하우스,Neo Seoul Guesthouse,37.554607,126.91818
hotels,619065,현대레지던스,Hyundai Residence,37.563717,127.00051
hotels,622211,프레이저 플레이스 센트럴 서울,Fraser Place Central Seoul,37.56238,126.96911
hotels,6225109,아이하우스 친친,,37.564053,126.918564
hotels,6225290,리안 호텔,,37.568943,126.99096
hotels,6225403,24게스트하우스 종로타워점,24 Guesthouse Jongno Tower,37.571663,127.00008
hotels,6226170,문 호스텔,Moon Hostel,37.560497,126.92485
hotels,623402,남산게스트하우스 2,,37.559105,126.984955
hotels,6352655,궁 게스트하우스,Gung Guest House,37.574352,126.99138
hotels,6378634,24게스트하우스 가로수길점,24guesthouse Garosu-gil,37.520267,127.02263
hotels,6378733,이코노미 호텔 은평점,,37.5879,126.91627
hotels,6402630,호텔 아띠 충무로,,37.560646,126.997185
hotels,6402635,Ever8 서비스 레지던스,,37.557434,126.94254
hotels,6476325,필름 37.2 호텔,Film 37.2 Hotel,37.51644,127.1128
hotels,6476794,미소 게스트하우스,Miso Guesthouse,37.55763,126.927315
hotels,6476796,K-스테이 게스트하우스,,37.561985,126.98843
hotels,6476847,호텔 미도,Hotel Mido,37.558754,126.98062
hotels,6476900,호텔 로프트,Hotel Loft,37.534977,126.89885
hotels,6476902,24게스트하우스 강남 센터점,24guesthouse Gangnam Center,37.50399,127.0335
hotels,6476903,24게스트하우스 명동 에비뉴,24guesthouse Myeongdong Avenue,37.561317,126.97766
hotels,6483063,클로이 게스트하우스,Chloe Guest House,37.51712,127.01968
hotels,650959,베스트 웨스턴 프리미어 호텔 국도,Best Western Premier Hotel Kukdo,37.566376,126.99638
hotels,6535698,드림 컴포트,,37.55797,126.92246
hotels,6535744,호텔 더 디자이너스 종로,Hotel The Designers Jongno,37.56915,126.988846
hotels,6536277,88 호스텔,,37.5549,126.92651
hotels,6552893,오빠 호스텔,Oppa Hostel,37.557648,126.94359
hotels,6552915,호텔 카라쉬,Hotel Karashy,37.47709,126.98041
hotels,6556403,데이즈 호텔 명동,Days Hotel Myeongdong,37.560772,126.98369
hotels,6561878,한강 레지던스 &amp; 게스트하우스,,37.536087,126.94513
hotels,6591787,김치 다운타운 게스트하우스,Kimchee Downtown Guesthouse,37.560814,126.96514
hotels,6591791,사랑채 한옥 게스트하우스 ,,37.577065,126.98444
hotels,6591870,남산 힐 호텔,Namsan Hill Hotel,37.556736,126.982506
hotels,659341,여의도파크센터 서울 - 메리어트 이그제큐티브 아파트먼트,,37.521133,126.91877
hotels,661056,더케이호텔서울,The-K Hotel Seoul,37.466606,127.03297
hotels,6621149,베스틴 빌라 명동,,37.55768,126.9852
hotels,6622618,JC 인 동대문 호스텔,,37.561012,127.00523
hotels,6622669,G 이태원 게스트하우스,G Itaewon Guest House,37.533184,126.99495
hotels,6622670,원즈빌 명동,Won&#39;s Ville Myeong-dong,37.560665,126.98972
hotels,6663003,롯데 시티 호텔 구로,Lotte City Hotels Guro,37.485394,126.89638
hotels,6680392,호텔 더 디자이너스 여의도,Hotel The Designers Yeouido,37.528248,126.92008
hotels,6725448,골드힐 게스트하우스,,37.514233,127.02522
hotels,673519,프라임 인 서울 호텔,Prime in Seoul Hotel,37.616886,126.92383
hotels,673725,엘르인 호텔,Hotel Elle Inn,37.541737,126.97219
hotels,6759613,언니네 하우스,Unni House,37.57632,127.02235
hotels,6759637,울타리 호스텔,Ultari Hostel,37.553864,126.93562
hotels,6759652,케이팝 호텔 동대문,,37.566235,127.006714
hotels,6816677,블루보트 호스텔 명동,,37.563007,126.99068
hotels,6817242,필스테이 동대문점,Philstay Dongdaemun DDP,37.564957,127.00657
hotels,6845532,풀리 홍 호스텔,,37.569904,126.99128
hotels,6867343,호텔 스카이파크 동대문 I,,37.56415,127.002075
hotels,6867409,CMS 인 서울,,37.58936,127.05663
hotels,6867428,YD 레지던스,,37.55087,126.9612
hotels,6867443,에이치호텔,,37.48708,127.01397
hotels,6871129,24게스트하우스 서울역 프리미어점,24guesthouse Seoul Station Premier,37.55361,126.97472
hotels,6877397,호텔릿,,37.55446,126.97351
hotels,6892917,24게스트하우스 신촌,,37.55497,126.93514
hotels,6941436,에이블 게스트하우스 홍대 2호점,,37.55531,126.92689
hotels,6941818,에이 하우스,,37.58317,126.98131
hotels,6941825,  ,Benikea Seoul Hotel,37.5568,126.85999
hotels,6941842,케이팝 호텔 서울역점,K-POP Hotel Seoul Station,37.554688,126.974075
hotels,6998634,이비스 버젯 앰배서더 서울 동대문,ibis budget Ambassador Seoul Dongdaemun,37.564297,127.00858
hotels,6998671,예포 게스트하우스,YE&#39;4 Guesthouse,37.567497,126.91958
hotels,6998962,명동 다다하우스,,37.55956,126.9862
hotels,7003892,신설동역 레지던스 동대문,,37.57626,127.02489
hotels,7008092,도미 인 프리미엄 서울 가로수길,,37.517056,127.02171
hotels,7043159,청연재,Cheong Yeon Jae Hanok Hotel,37.58033,126.985634
hotels,7043480,아티스트 77 하우스,Artist 77 House,37.52682,127.0514
hotels,7043495,토모 레지던스,,37.56193,126.98795
hotels,7053590,패밀리 &amp; 프렌즈 하우스 2,,37.560238,126.92225
hotels,7053783,동대문 화신 호스텔,Dongdaemun Hwashin Hostel,37.56522,127.00339
hotels,7054545,신라스테이 역삼,Shilla Stay Yeoksam,37.504753,127.04153
hotels,7064499,맘하우스,MOM House,37.560486,126.9867
hotels,7074384,D.H 신촌 게스트하우스,D.H Sinchon Guesthouse,37.552628,126.93677
hotels,7074393,베이튼 서울 동대문,,37.565117,127.00268
hotels,7074669,호스텔 클로이,Hostel Chloe,37.56862,126.98862
hotels,7089489,호스텔 KW 신사,Hostel KW Sinsa,37.5126,127.01864
hotels,7103191,청담게스트하우스,Cheongdam Guesthouse,37.525665,127.05014
hotels,7103647,이노 호스텔 &amp; 펍라운지 홍대,Inno Hostel &amp; Pub Lounge Hongdae,37.553623,126.91419
hotels,7107794,더 해밀 게스트하우스,The Haemil Feel Like Home,37.562107,126.926346
hotels,7107952,달집 북촌,Dalzip Bukchon,37.584137,126.983444
hotels,7134179,이코노미 호텔 명동 프리미어,Ekonomy Hotel Myeongdong Premier,37.56151,126.984535
hotels,7161281,도담게스트하우스,Dodam Guesthouse,37.5351,126.9928
hotels,7161291,알로프트 서울 강남,,37.52372,127.05565
hotels,7181422,호텔 봉봉,Hotel Bonbon,37.56649,126.98237
hotels,7244241,글래드 호텔 여의도,GLAD Hotel Yeouido,37.527695,126.91745
hotels,7268921,어반 플레이스 강남,Urban Place Gangnam,37.49163,127.02915
hotels,7268972,능마루 게스트하우스,,37.558918,126.98544
hotels,7269014,에스알 호텔 서울 마곡,SR Hotel Seoul Magok,37.56109,126.83942
hotels,7274687,오클라우드 호텔,Ocloud Hotel,37.503033,127.02389
hotels,7274753,호스텔 바닐라 1,,37.572903,127.011024
hotels,7289673,야코리아 호스텔 홍대,YaKorea Hostel Hongdae,37.557335,126.92918
hotels,7305732,호스텔 더 스타일,Hostel The Style,37.55955,126.923546
hotels,7353565,베니키아 프리미어 호텔 베르누이,,37.49732,126.84589
hotels,7356275,창덕궁 소담,Changdeokgung Sodam,37.576298,126.99063
hotels,7356363,가온 골든파크,Gaon Golden Park,37.57083,127.01447
hotels,7356365,레인보우 호텔 명동,Rainbow Hotel Myeongdong,37.56252,126.992134
hotels,7358712,스타즈 호텔 명동 II,Staz Hotel Myeongdong II,37.562553,126.99065
hotels,7358738,골든 시티 호텔,,37.56265,127.06087
hotels,7358746,하우스 740,House 740,37.558037,126.920975
hotels,7358763,스타 게스트하우스,Star Guest House,37.561848,126.97801
hotels,7367825,메이 플레이스 서울 동대문,May Place Seoul Dongdaemun,37.576206,126.99862
hotels,7382024,호텔 아띠 성수,Hotel Atti Seongsu,37.54373,127.05695
hotels,754311,라마다 호텔 앤드 스위트 서울 남대문,Ramada Hotel and Suites Seoul Namdaemun,37.560467,126.97217
hotels,7597494,송파 호스텔,Songpa Hostel,37.50829,127.1113
hotels,7597620,코코아게스트하우스,Cocoa Guesthouse,37.549755,126.92175
hotels,7597626,트윈래빗 게스트하우스,Twin Rabbit Guesthouse,37.56058,126.92258
hotels,7597655,호텔 나포레,Hotel Nafore,37.569046,126.990555
hotels,7613319,이비스 스타일 앰배서더 서울 명동,Ibis Styles Ambassador Seoul Myeongdong,37.56166,126.98929
hotels,7619069,에이메스 호텔,AMASS Hotel,37.57721,126.99095
hotels,7647148,르와지르 호텔 서울 명동,Loisir Hotel Seoul Myeongdong,37.561237,126.98465
hotels,7654275,아로하 게스트하우스,Aroha Guest House,37.55176,126.974396
hotels,7654277,MK 리버티 하우스,Mk Liberty House Seoul Station,37.55448,126.96899
hotels,7679092,탕파스호스텔,,37.561653,126.98981
hotels,7685026,스테이 비 호텔 명동,Stay B Hotel Myeongdong,37.56331,126.99287
hotels,7685101,남산 시티 호텔 명동,Namsan City Hotel Myeongdong,37.55798,126.97847
hotels,7685521,하모니 호텔,Harmony Hotel,37.538303,127.13796
hotels,7685665,호텔 디오레,Hotel The-Ore,37.555614,126.92047
hotels,7686969,신라스테이 서대문,Shilla Stay Seodaemun,37.565163,126.96675
hotels,7687450,24 게스트하우스 종로3가역,24 Guesthouse Jongno 3ga Station,37.572895,126.99228
hotels,7687499,호텔 명동,,37.5606,126.97942
hotels,7688216,솔라리아 니시테츠 호텔 서울 명동,,37.5626,126.98516
hotels,7701584,웰 플러스 비앤비 게스트하우스,Well Plus BnB Guest House,37.55842,126.9856
hotels,7701591,누하당 게스트하우스,Nuhadang Hanok Guesthouse,37.579826,126.968475
hotels,7701925,모노하우스,,37.555813,126.91881
hotels,7738789, ,,37.58259,126.98743
hotels,7790767,K-게스트하우스 명동 2,K-guesthouse Myeongdong 2,37.56187,126.986946
hotels,7790768,K-게스트하우스 인사동,K-guesthouse Insadong,37.573547,126.98618
hotels,7790781,K 관광호텔,K-Hotel,37.545223,126.93005
hotels,7792581,케이팝 레지던스동대문,K-POP Residence Dongdaemun,37.563335,127.00685
hotels,7805316,88 게스트하우스,,37.560062,126.9842
hotels,7810424,오리엔스 호텔 &amp; 레지던스,Oriens Hotel &amp; Residences,37.56005,126.99114
hotels,7815269,치선 호텔 서울 명동,Chisun Hotel Seoul Myeongdong,37.564148,126.99848
hotels,7834720,포 포인츠 바이 쉐라톤 서울 남산,"Four Points by Sheraton Seoul, Namsan",37.535984,126.97135
hotels,7834994,선라이즈 인 동대문,Sunrise Inn Dongdaemun,37.575733,127.02177
hotels,7905854,인 서울 게스트하우스,In Seoul Guesthouse,37.570644,126.98739
hotels,7905978,이태원 랜드 게스트룸,Itaewon Land Guest Room,37.53433,126.99726
hotels,7905993,지나 하우스 홍대,,37.561607,126.92542
hotels,7917969,비빔밥 게스트하우스,Bibimbap Guesthouse,37.573364,126.98976
hotels,7997916,서울 N 스테이 호스텔,Seoul N Stay Hostel,37.564976,127.00211
hotels,8024697,K-게스트하우스 신촌 2,K-guesthouse Sinchon 2,37.55455,126.93492
hotels,8024699,K-게스트하우스 명동 1,K-guesthouse Myeongdong 1,37.560696,126.9833
hotels,8070350,호텔 스테이 인,Hotel Stay Inn,37.551964,126.97375
hotels,8073848,남산게스트하우스 3호점,Namsan Guest House 3,37.559166,126.98511
hotels,8076685,호텔 도마,,37.561493,126.99564
hotels,8076702,홀리데이 인 익스프레스 서울 을지로,Holiday Inn Express Seoul Euljiro,37.5666,126.98949
hotels,8098623,남산게스트하우스,Namsan Guesthouse,37.558033,126.98453
hotels,8110812,보리 호텔,Boree Hotel,37.49497,127.036644
hotels,8110867,소테츠 호텔즈 더 스프라지르 서울 동대문,,37.564655,127.00771
hotels,8114042,파크 애비뉴 게스트하우스,Park Avenue Guest House,37.562386,126.92299
hotels,8118189,신라스테이 마포,Shilla Stay Mapo,37.542778,126.94963
hotels,8261880,스테이 나우 게스트하우스,Stay Now Guest House,37.562965,126.92563
hotels,8285182,스타 호스텔 동대문 스위트,Star Hostel Dongdaemun Suite,37.571613,127.00291
hotels,8298647,더스테이호텔,The Stay Hotel,37.56171,126.98674
hotels,8298699,나누 게스트하우스 핑크,Nanu Guesthouse Pink,37.55895,126.92575
hotels,8299878,까사 명동 게스트하우스,Casa Myeongdong Guesthouse,37.56189,126.98767
hotels,8308049,88 게스트하우스 종로,,37.5823,126.980835
hotels,8322447,호텔 페이토 강남,Hotel Peyto Gangnam,37.486523,127.033134
hotels,8368838,호텔 8 아워즈,Hotel 8 Hours,37.562202,126.97791
hotels,8369100,비 마이 게스트,Be My Guest,37.533234,126.993225
hotels,8394112,요트 게스트하우스,,37.535408,126.99226
hotels,8457967,탑 호텔,Top Hotel,37.55897,126.97985
hotels,8458163,24게스트하우스 명동 타운,24guesthouse Myeongdong Town,37.559456,126.97897
hotels,8458286,카림 게스트하우스,Charim Guesthouse,37.564926,127.007355
hotels,8458309,루미아 호텔,Lumia Hotel,37.55804,126.97965
hotels,8458325,필스테이 동대문 이코노믹,Philstay Dongdaemun Economic,37.5663,127.00394
hotels,8458377,탑 호텔 &amp; 레지던스,Top Hotel &amp; Residence,37.57352,126.98886
hotels,8476641,더 메이 하우스,The Mei Haus,37.567745,126.919075
hotels,8476681,서울달빛 DDP지점,Seoul Dalbit DDP,37.56165,127.00555
hotels,8476780,하모리 게스트하우스,Hamory Guesthouse,37.56542,127.00943
hotels,8476956,명동 게스트하우스 ZZ,Myeongdong Guesthouse ZZ,37.560677,126.986885
hotels,8522924,호텔 바로아토,,37.559216,126.92434
hotels,8522933,L7명동,,37.56136,126.98682
hotels,8522945,롯데 시티 호텔 명동,Lotte City Hotel Myeongdong,37.566803,126.98803
hotels,8523099,타임 트래블러즈 파티 호스텔,,37.56087,126.92748
hotels,8523103,57 명동 호스텔,57 Myeongdong Hostel,37.56093,126.98339
hotels,8555505,호텔 더 디자이너스 동대문,Hotel The Designers Dongdaemun,37.56373,127.00562
hotels,8555913,파티오 59 게스트하우스 홍대점 2,Patio 59 Guesthouse Hongdae Branch 2,37.56231,126.92
hotels,8591381,리안 게스트하우스,,37.613167,127.01109
hotels,8608162,소테츠호텔즈 더 스프라지르 서울 명동,Sotetsu Hotels the Splaisir Seoul Myeong-Dong,37.56203,126.9789
hotels,8630628,호텔 더 디자이너스 리즈 강남 프리미어,Hotel The Designers LYJ Gangnam Premier,37.505337,127.02593
hotels,8631724,모닝스카이 호텔,,37.56399,126.99996
hotels,8681682,호텔 포레힐,Hotel Foreheal,37.51197,127.023735
hotels,8681735,호텔 카푸치노,Hotel Cappuccino,37.5068,127.03149
hotels,8686362,24 게스트하우스 서울시청점,24guesthouse Seoul City Hall,37.56486,126.97636
hotels,8691139,S.A 아파트먼트 서울역,Service Apartment Seoul Station,37.55504,126.96838
hotels,8691279,호텔 페이토 삼성,Hotel Peyto Samseong,37.50849,127.05922
hotels,8691395,스타호스텔 인사동,Star Hostel Insadong,37.572998,126.99044
hotels,8691771,필스테이 이태원점,,37.535614,126.99198
hotels,8692646,투투 하우스,,37.561485,126.92446
hotels,8692662,크라운 파크 호텔 서울,,37.563755,126.98076
hotels,8692780,엠버시 게스트하우스,Guesthouse Embassy,37.53335,127.00554
hotels,8701595,양미모텔,,37.561146,127.005684
hotels,8701673,허브 호텔,,37.50962,127.08549
hotels,8701716,몽모텔,Mong Motel,37.576447,127.025406
hotels,8705163,해피 데이 패밀리,,37.533142,127.07041
hotels,8705421,저스트포유 게스트하우스,Just4u Guesthouse,37.571507,127.00741
hotels,8706009,하오 게스트하우스,,37.5554,126.92676
hotels,8706565,써니힐 게스트하우스 홍대,Sunnyhill Guesthouse Hongdae,37.584385,127.00267
hotels,8706793,하우스테이 게스트하우스 2호점,Housetay Guesthouse 2,37.555607,126.92561
hotels,8709452,홍대스타일 게스트하우스,,37.557465,126.92085
hotels,8709460,드림인서울,Dream Inn Seoul,37.486485,126.92988
hotels,8713943,31 페이지,31 Page,37.582424,127.04865
hotels,8773968,큐모텔,Q Motel,37.553467,126.93575
hotels,8790502,The AN 호스텔,The AN Hostel,37.565216,126.98955
hotels,8806838,글로리 인,Glory Inn,37.56506,127.00212
hotels,9452203,신라스테이 광화문,Shilla Stay Gwanghwamun,37.57244,126.98114
hotels,9454368,K-게스트하우스 명동 3,K-Guesthouse Myeongdong 3,37.562454,126.985825
hotels,9454415,에이큐브 호텔,Acube Hotel,37.566257,127.00177
hotels,9454482,호텔 밀리오레,Hotel Migliore,37.568066,127.00848
hotels,9454537,신라스테이 구로,Shilla Stay Guro,37.485657,126.9044
hotels,9553151,지월장 게스트하우스,Jiwoljang Guest House,37.54711,126.9791
hotels,9564232,두 게스트하우스 북촌 2,Doo guesthouse Bukchon 2,37.579838,126.9865
hotels,9594362,K-게스트하우스 프리미엄 강남 1,K-guesthouse Premium Gangnam 1,37.50538,127.025246
hotels,9594532,호텔 더 디자이너스 청량리,Hotel the Designers Cheongnyangni,37.58167,127.0476
hotels,9594536,스타 호스텔 명동 패밀리,,37.56076,126.99545
hotels,9594549,K-게스트하우스 인사동 2,K-Guesthouse Insadong 2,37.56927,126.98406
hotels,9709682,베니키아 프리미어 호텔 동대문,,37.573547,127.02015
hotels,9722314,서울 달빛 게스트하우스,Seoul Dalbit Dongdaemun Guesthouse,37.571976,127.01455
hotels,9735755,마이 리틀 게스트하우스,,37.56171,126.91984
hotels,9751158,호텔 칸,Hotel Khan,37.525063,126.90961
hotels,9796468,호텔 베네,Hotel Bene,37.565052,126.9925
hotels,9796501,벙크 게스트하우스,,37.554863,126.92709
hotels,9811641,나그네 하우스,NagNe House,37.576736,126.97163
hotels,9820385,로드하우스 명동,,37.561893,126.99399
hotels,9861332,호텔 베뉴지,Hotel Venue G,37.568253,126.99102
hotels,9981959,메이커스호텔,,37.57242,126.98954
hotels,9982952,베스틴 호스텔 명동,Vestin Hostel Myeongdong,37.561844,126.989426
hotels,9986158,코트야드 서울 남대문,,37.56108,126.97658
