class,placeId,score,name_kor,name_eng,latitude,longitude
restaurants,10000599,3.5609756097560976,빌즈 광화문,bills Gwanghwamun,37.5717,126.97971000000001
restaurants,10025748,4.0,뱀부하우스,Bamboo House,37.507,127.03663999999999
restaurants,10040756,3.8181818181818175,117 파크,117 Park,37.571552000000004,126.970795
restaurants,1006353,5.0,레보,Les Baux,37.52602,127.03658999999999
restaurants,10063988,4.5,참치공방,Chamchi Gongbang,37.57072,126.98422
restaurants,10065566,5.0,할스,Hearth,37.50355,127.03987
restaurants,10073597,4.0701754385964914,오리지널 팬케이크 하우스,The Original Pancake House Itaewon,36.951187,127.02991000000002
restaurants,10079161,3.703125,BHC치킨 명동본점,BHC Chicken Myeongdong,37.564575,126.98386399999998
restaurants,10080270,3.7857142857142856,아카시아 카페 비스트로,Acacia Cafe & Bistro,37.5199,127.022675
restaurants,10083141,4.0,탑 카페테리아,TOP cafeteria,37.563342999999996,127.0371
restaurants,10085211,4.75,야마뜨,Yec'hed Mat,37.54899,126.91878999999999
restaurants,10096415,4.529411764705882,자연별곡,Nature Kitchen,37.570892,126.97895
restaurants,10103011,4.333333333333333,YG 리퍼블릭,YG Republique,37.564583,126.983574
restaurants,10116264,5.0,롱브레드,Long Bread,37.56409,126.99793999999999
restaurants,10117976,4.111111111111111,브라더후드키친,Brotherhood Kitchen,37.502784999999996,127.02743999999998
restaurants,10118068,4.0,멘야하나비,Menya Hanabi,37.51106,127.1076
restaurants,10122363,4.125,익선동121,EX-ON 121,37.574028000000006,126.99029499999999
restaurants,10133954,4.967741935483871,이빠네마 그릴,Ipanema Grill,37.55708,126.93718
restaurants,10136205,4.2615384615384615,개성만두 궁,Gaeseong Mandu Koong,37.574345,126.985565
restaurants,10137453,2.782608695652174,아그라 코엑스몰점,Agra COEX Mall,37.511390000000006,127.05916599999999
restaurants,10137496,3.0,이태원 겐지스,Ganges Itaewon,37.53524,126.99898
restaurants,10151079,4.333333333333333,몰트바배럴,Malt Bar BARREL,37.510704,127.0555
restaurants,10154101,3.363636363636364,래미스,Ramie's,37.535004,126.99441999999999
restaurants,10160945,3.333333333333333,엉터리생고기 왕십리점,Ungteori Saenggogi Wangsimni,37.562614,126.98405
restaurants,10160977,4.0,명동칼국수,Myeongdong Kalguksu,37.520832,126.93128
restaurants,10161274,3.6428571428571432,오후정,Ohujeong,37.386036,127.12218999999999
restaurants,10161356,4.5769230769230775,모모카페 코트야드 서울 남대문,MoMo Cafe Courtyard Seoul Namdaemun,37.560974,126.976906
restaurants,10161422,4.166666666666667,반미리,Banhmi Lee,37.54307,126.98758000000001
restaurants,10167973,4.782608695652174,버거뱅,Burgerbang,37.57853,126.98911000000001
restaurants,10169301,4.625,중앙해장,Jungang Haejang,37.50795,127.06556
restaurants,10171106,5.0,,Shinsi Hwaro Seorae Mael BBQ Joint,37.498740000000005,126.99786
restaurants,10171533,4.230769230769232, ,Ramen Beravo,37.553707,126.90965
restaurants,10174333,4.5,옥수 해물찜 칼국수,Oksoo Haemulchim Kalkuksoo,37.54229,127.01815
restaurants,1017583,3.75,세시 셀라 압구정점,Ceci Cela Apgujeong Store,37.52313,127.03616000000001
restaurants,1017585,3.555555555555556,브루스케타 코엑스점,Bruschetta Pix Caffe,37.51184,127.05845
restaurants,1018414,4.375,디자인 카페,Design Cafe,37.52582,127.03638000000001
restaurants,10184287,2.5,젠바,Zen Bar,37.552402,126.92216
restaurants,10189486,3.333333333333333,들풀,Dulpul,37.55653,126.92200000000001
restaurants,10189513,4.75,무화잠,Moohwajam,37.52057,127.02968
restaurants,10189599,4.5,Bbq  ,Bbq Primium Cafe,37.551144,127.12817
restaurants,10189607,5.0,,Hwarin,37.502421999999996,127.03759
restaurants,10192704,4.37037037037037,피짜 무쪼,Pizza Muzzo,37.534782,126.99628
restaurants,10197345,4.266666666666667,모녀꼬마마약김밥,Monyeo Kkoma Mayak Gimbap,37.570248,127.00111000000001
restaurants,10202101,4.153846153846153,가온,Gaon,37.522617,127.03643999999998
restaurants,10202451,4.5,장수갈매기,Jansu Galmaegi,37.543022,126.95171
restaurants,10202624,4.0,동원집,Dongwon Jip,37.566154,126.98258999999999
restaurants,10206020,4.666666666666667,닭진미 강원집,Dakjinmi Gangwon Jib,37.56409,126.99793999999999
restaurants,1022941,4.285714285714286,페이퍼 가든,Cafe Papergarden,37.523876,127.03758
restaurants,10229475,4.916666666666667,사랑의고기,Beef of Love,37.537884000000005,127.00488
restaurants,10235656,5.0,남산와이너리,Namsan Winery,37.538914,126.98911000000001
restaurants,10240194,4.84375,페르시안 퀸,Persian Queen,37.539543,126.99538000000001
restaurants,10240375,4.333333333333333,랩,Ramen Truck Lab,37.547447,126.92258500000001
restaurants,10241286,3.333333333333333,김삼보 김치찌개,Kimsambo Kimchi-Jjigae,37.566063,127.00573
restaurants,10245574,5.0,플라워진,Flower Gin,37.539825,126.98755
restaurants,10250277,4.714285714285714,루트,Root,37.53727,127.00003999999998
restaurants,10253268,2.878787878787879,더 파운틴,The Fountain,37.535152000000004,126.993
restaurants,10253390,4.5,,360,37.563755,126.90841999999999
restaurants,10257443,4.805194805194804,지화자,Jihwaja,37.586956,126.96951999999999
restaurants,10257708,3.8,몽키숄더,Monkey Shoulder,37.536716,126.99968999999999
restaurants,10257940,4.325581395348837,글램 라운지,Glam Lounge,37.535072,126.99359
restaurants,10263330,4.333333333333333,  ,  ,37.577118,127.03093999999999
restaurants,10266362,3.75,유로구르메,Eurogourmet,37.568375,126.97827
restaurants,10277863,4.454545454545454,앙프랑뜨,L'Empreinte French Bistro Seoul,37.56152,126.92442
restaurants,10277871,4.1,더스트릿,The STREET,37.524715,127.051414
restaurants,10277955,5.0,향정 인사동,Hyangjeong Insadong,37.5743,126.98404
restaurants,10278307,5.0,,Iron Pan,37.565517,126.99529
restaurants,10309069,4.96,Slice,Slice,37.52535,127.05033
restaurants,10318499,5.0,김치버스,Kimchi Bus,37.541233,127.06576000000001
restaurants,10338068,4.0,스팀펑크,Steampunk,37.503876,127.02798999999999
restaurants,10342030,4.857142857142857,미스테이크룸,MISSTAKEROOM,37.53395,126.99313000000001
restaurants,10342318,4.5,뚝심한우,Dduksim Hanu,37.563274,126.98576000000001
restaurants,10359032,5.0,소울트럭,Soul Truck,37.539375,126.99152
restaurants,10379991,3.333333333333333,누사,Nusa,37.544968,126.92424
restaurants,10386964,5.0,Nature Kitchen,Nature Kitchen,37.51021,127.09743
restaurants,10388017,3.6,빤닭빤닭,Bbandak Bbandak,37.563472999999995,126.98524499999999
restaurants,10431608,4.111111111111111,열두달,12dal,37.572975,126.98958600000002
restaurants,10436094,4.962962962962963,낭만치맥,Romantic Chimac,37.561023999999996,126.85488000000001
restaurants,10455715,4.5,구스토타코,Gusto Taco USAG Yongsan,37.529884,126.98218999999999
restaurants,10455766,4.666666666666667,노멀바이류니끄,Normal by Ryunique,37.520817,127.02221999999999
restaurants,10472526,5.0,소살리토바닷가재,Sausalito Lobster,37.572224,126.98646000000001
restaurants,10483058,4.0,L'Empreinte Bistro,L'Empreinte Bistro,37.56155,126.9241
restaurants,10492609,4.833333333333333,올드캡,OLDCAP,37.537045,126.98816000000001
restaurants,10510550,4.833333333333333,카페로쏘,Cafe Rosso,37.582863,126.98122
restaurants,10536084,3.6666666666666665,애슐리 노들나루점,Ashley Nodeul Naru,37.525715000000005,126.93841
restaurants,10536992,3.8571428571428568,에르메스 까페마당,"Cafe Madang, Maison Hermes Dosan Park",37.522976,127.03518000000001
restaurants,1058133,4.2814371257485035,더 플라잉 팬 블루,The Flying Pan Blue,37.534874,126.9944
restaurants,10593507,4.909090909090909,라 마밋 서울,La Marmite Seoul,37.53967,126.9859
restaurants,10597969,4.733333333333333,북촌옥,Bukchonok,37.579370000000004,126.98658999999999
restaurants,10624805,5.0,카페샌드박,Cafe SandPark,37.557415,126.92135
restaurants,10628978,5.0,미쉬매쉬,Mishmash,37.537365,127.000046
restaurants,10642014,4.916666666666667,플람스비스트로 서초점,"Flam's Bistro, German & French Restaurant",37.482517,127.01038
restaurants,10660437,4.416666666666667,더플레이스,The Place,37.55595,126.97333
restaurants,10670911,4.0,포춘레스토랑,Fortune Restaurant,37.5648,127.00505
restaurants,10674489,4.333333333333333,Swoyambhu Restaurant,Swoyambhu Restaurant,37.5517,126.93739
restaurants,10674909,4.333333333333333,부엉이 돈가스,Owl's Cutlet,37.568740000000005,127.00918999999999
restaurants,10676592,4.5606060606060606,보칼리노,Boccalino,37.57034,126.97543999999999
restaurants,10677157,4.25,레스토랑 오늘,O'neul the Korean Cuisine,37.52622,126.99596000000001
restaurants,10677636,3.0,하남돼지집 명동1호점,Hanam Dwaeji Jib Myeongdong 1st,37.56511,126.98375
restaurants,10686479,4.0,HBC고깃집 이태원2호점,HBC Meat House Itaewon 2-ho,37.538425,126.96545
restaurants,10691572,4.809523809523808,소브레메사,Sobremesa,37.502644000000004,127.02387
restaurants,10696724,4.75,2시의 테이블 by 메종 드 꾸숑,2 o'clock's Table by Maison de Cochon,37.52122,127.02256000000001
restaurants,10720358,4.411764705882354,모터시티,Motor City,37.53402,126.98947
restaurants,10730323,4.285714285714286,포치민 - 디타워점,Pho Chi Minh - D Tower,37.5717,126.97971000000001
restaurants,1073239,4.0,스시 효,Sushi Hyo,37.522059999999996,127.04185
restaurants,10747919,3.752941176470588,쉐이크쉑 강남점,Shake Shack Gangnam,37.502666,127.025375
restaurants,10751158,4.951219512195122,택대리네 인사동마늘보쌈,Insadong Garlic Bossam,37.573963,126.98612
restaurants,10751162,4.9375,택대리네고기집,Taekdaerine Gogi Jib,37.56278,126.99086000000001
restaurants,10764995,4.416666666666667,라페름,La FERME,37.537083,127.00183999999999
restaurants,10782575,4.0,포크포크,Pork Fork,37.655598,127.06221000000001
restaurants,10804960,5.0,마트료시카,Matreshka,37.536137,126.999756
restaurants,10804989,4.571428571428571,뚜르 드 고메,Tour de Gourmet,37.558365,126.97861
restaurants,10805007,4.6,유람 더 그릴,Youlam The Grill,37.558365,126.97861
restaurants,10815836,4.916666666666667,뉴욕 버거 앤 베이글,New York B&B Burger and Bagel,37.49667,127.03121000000002
restaurants,10818105,4.5,제주몬트락 강남2호점,Jeju Montrak Gangnam 2-ho,37.508340000000004,127.0235
restaurants,10825480,4.142857142857143,매란방,Maeranbang,37.5606,127.03796399999999
restaurants,10825574,4.0,온더보더 광화문D타워점,On The Border Gwanghwamun D-Tower,37.57132,126.97895
restaurants,10833119,4.166666666666667,뽀모도로 코엑스몰점,Pomodoro COEX Mall,37.512196,127.05871
restaurants,10833148,4.0,세상의모든아침,Sesangui Modeun Achim,37.52219,126.91991399999999
restaurants,10833156,4.2,하동관 코엑스몰직영점,Hadonggwan COEX Mall,37.51125,127.05972
restaurants,1087908,3.117647058823529,T.G.I.F. 대학로점,TGI Fridays Daehangno Store,37.58286,127.0021
restaurants,1089519,3.4375,홀리차우 압구정점,HO LEE CHOW Apgujeong Store,37.52237,127.0377
restaurants,10915600,5.0,타니도리,Tanidori,37.51795,127.02202
restaurants,1091660,5.0,딘 1998,DEAN1998,37.49988,127.02528999999998
restaurants,10954364,4.8,태번38,Tavern 38,37.486076000000004,127.00471
restaurants,1100758,4.105263157894736,빅락,Big Rock,37.499718,127.02893
restaurants,1114546,4.075268817204301,피자 힐,Pizza Hill,37.553875,127.109146
restaurants,1139516,3.333333333333333,빌라 소르티노,Villa Sortino,37.534775,126.99659
restaurants,1139517,4.25,벽제 갈비,Byeokje Galbi,37.5578,126.93777
restaurants,1140397,4.25,아지오 홍대점,Agio Hongdae Store,37.573784,126.98346000000001
restaurants,1140398,2.6111111111111107,알리바바,Ali Baba,37.534786,126.99656999999999
restaurants,1140399,4.1909090909090905,안동찜닭,Andong Jjimdak,37.563747,126.98522
restaurants,1140439,4.333333333333333,한미리 역삼점,Hanmiri Yeoksam Store,37.50006,127.03665
restaurants,1140453,3.7666666666666666,이태원 갈비,Itaewon Galbi,37.53488,126.99433
restaurants,1140460,3.8867924528301887,메드포갈릭 압구정점,Mad For Garlic Apgujeong,37.528403999999995,127.03173999999999
restaurants,1143856,4.111111111111111,놀부 홍대점,Nolboo Hongdae Store,37.55458,126.92171
restaurants,1143877,3.0434782608695654,포 베이 압구정 본점,Pho Bay Apgujeong Main Store,37.52792,127.03452
restaurants,1143904,4.361111111111111,사동면옥,Sadong Myeonok,37.57413,126.98586
restaurants,1143932,3.140845070422535,산토리니,Santorini,37.534264,126.98903999999999
restaurants,1144019,3.508196721311476,곽경찬의 시골밥상,Kwak Kyung Chan's Sigol Bapsang,37.535835,126.99938999999999
restaurants,1144379,4.037313432835822,탑 클라우드,Top Cloud Grill & Cafe,37.570526,126.98353600000002
restaurants,1148306,3.9642857142857135,참숯골,Chamsookgol,37.567097,126.97935
restaurants,11543569,4.666666666666667,오오픈 레스토랑,Oopen Restaurant,37.566387,127.00222
restaurants,11621364,4.0,갓잇,God Eat,37.500965,127.0518
restaurants,11621385,3.25,차찬텡,Cha Chaan Teng,37.53689,126.98836999999999
restaurants,11644697,4.833333333333333,미스피츠,MISFITS Burger & Pub,37.482582,126.98101000000001
restaurants,1166551,4.285714285714286,한우리 한정식,Hanwoori Korean Restaurant,37.521156,127.03473000000001
restaurants,11671916,4.75,송혜자김밥,Song Hyeja Gimbap,37.592415,127.0123
restaurants,11671920,4.625,써니사이드,Sunnyside,37.49344,127.13351399999999
restaurants,11675011,4.571428571428571,Kioku Seoul,Kioku Seoul,37.571,126.97546000000001
restaurants,11693244,4.571428571428571,더크라우드,The Crowd,37.546528,126.92296
restaurants,11704295,4.75,5Extracts,5Extracts,37.534878000000006,126.99761000000001
restaurants,11734384,4.821428571428571,샐러드 브라더스,Salad Brothers,37.558823,126.92504
restaurants,11736270,5.0,라바치치,Lava Chee Chee,37.549805,126.92114
restaurants,11736947,5.0,베네베네,BeneBene,37.506855,127.03273
restaurants,1174970,4.030612244897959,프로 간장 게장 신사점,Pro Ganjang Gejang Sinsa,37.514773999999996,127.01915
restaurants,1174982,4.125,토속촌삼계탕,Tosokchon Samgyetang,37.57775,126.97164
restaurants,1176237,3.5405405405405403,포린 레스토랑,Foreign Restaurant,37.53396,126.99565
restaurants,1176564,4.041666666666667,송원,Song Won,37.559875,127.00523000000001
restaurants,11800883,3.0,카페 포즈,PO:Z KITCHEN,37.508408,127.05868000000001
restaurants,11807492,3.888888888888889,보름쇠,Bo Reum Soei,37.50922,127.05646000000002
restaurants,11807511,3.6060606060606064,유 유안,Yu Yuan,37.570995,126.97546000000001
restaurants,11807527,4.428571428571429,곳간,Gotgan.,37.52219,126.91978999999999
restaurants,11816035,4.5,러스티 스모크하우스,Rusty's Smokehouse,37.534909999999996,126.9921
restaurants,11816054,4.5,러스티 립 하우스,Rusty's Rib House,37.550552,126.91398999999998
restaurants,11824462,5.0,스쿠로,Scuro,37.52069,127.02408999999999
restaurants,11832256,5.0,씨태번,C Tavern,37.561794,126.98793
restaurants,11857518,4.75,나즈드라비,Na Zdravi,37.502148,127.02615
restaurants,11864913,4.608695652173913,노리테이블,Nori Table,37.534492,126.98799
restaurants,11875843,5.0,타이거타이거,Tiger Tiger,37.57577,126.99123999999999
restaurants,11884871,4.727272727272728,가회한경헌,Gallery Cafe Gahoe Hankyunghun,37.583145,126.986725
restaurants,11885525,4.666666666666667,뉴욕아파트먼트,Newyork Apartment Burger Bar,37.54977,126.91958000000001
restaurants,11895284,3.333333333333333,삐삣버거,Pipit Burger,37.537937,127.00178500000001
restaurants,11906759,4.573770491803279,온더그릴 명동,On The Grill Myeongdong,37.559242,126.98585
restaurants,11906772,5.0,로얄인디아,Royal Fine Indian Cuisine,37.541214000000004,126.94898
restaurants,11909695,4.0,경양식1920,Gyeongyangsik 1920,37.57355,126.98953999999999
restaurants,11909804,4.571428571428571,왓어샐러드,What a Salad,37.533924,126.99225
restaurants,11923762,4.384615384615385,우래옥 을지로점,Woolaeoak,37.568054,126.99866999999999
restaurants,1194021,3.533333333333333,마포 진짜 원조 최대포,Mapo Jinjja Wonjo Choidaepo,37.5447,126.95203400000001
restaurants,11948723,4.333333333333333,아메리칸무드,American mood,37.518615999999994,127.030174
restaurants,11950049,3.5294117647058822,명동부산집,Busan Jib Restaurant - Halal,37.563152,126.98482
restaurants,11959106,4.6,세종참치,Sejong Tuna,37.561398,126.98765
restaurants,11959126,5.0,카페그레뱅,Cafe Grevin,37.566159999999996,126.98042
restaurants,11961566,4.4444444444444455,더백푸드트럭,The 100 Food Truck,37.547416999999996,126.98406000000001
restaurants,1196214,4.23111555777889,명동교자 본점,Myeongdong Kyoja Main,37.562542,126.98548000000001
restaurants,1198199,3.615384615384616,삼김 명동 본점,SamKim Myungdong Store,37.561840000000004,126.98716
restaurants,11983467,4.333333333333333,텅앤그루브조인트,Tongue & Groove Joint,37.53396,126.9945
restaurants,11998063,4.166666666666667,느린마을양조장&펍 센터원점,Neurin Maeul Yangjojang & Pub CENTER 1,37.477543,127.00856999999999
restaurants,12004941,2.636363636363636,씽코데마요,Cinco De Mayo,37.55493,126.9304
restaurants,12019716,3.92,쉐이크쉑 청담점,Shake Shack Cheongdam,37.5225,127.03778
restaurants,12058130,3.4,드마리스 대치점,D'Maris Daechi,37.496677000000005,127.07171000000001
restaurants,12097702,4.4,엘리,Ellie,37.573204,126.98987
restaurants,12123645,4.875,죠티인도레스토랑,Jyoti Restaurant Jonggak Seoul,37.56922,126.98666000000001
restaurants,12162579,3.0,브루스브라더쓰,Bruce Brothers,37.561592,126.92721999999999
restaurants,12171650,4.583333333333333,남산다이너앤펍,Namsan Diner&Pub,37.55062,126.97296999999999
restaurants,12171677,5.0,소녀방앗간 커먼그라운드건대점,Sonyeo Bangatgan Common Ground Konkuk University,37.541176,127.06608999999999
restaurants,12204921,4.307692307692308,화해당 여의도점,Hwahaedang Yeouido,37.52966,126.92173999999999
restaurants,12213153,5.0,스시카이신,Sushi Kaisin,37.523967999999996,127.05171000000001
restaurants,12222359,4.5555555555555545,갓덴스시 명동점,Gatten Sushi Myeongdong,37.564327,126.98343999999999
restaurants,12250577,4.611111111111111,부촌육회,Buchon Yukhoe,37.570343,126.99991000000001
restaurants,12257399,3.4285714285714284,크래프트한스 강남직영점,Craft Han's Gangnam,37.518440000000005,127.02335
restaurants,12261567,4.673469387755102,구르카 인도 레스토랑,Gurkha Indian Restaurant,37.56305,126.98523999999999
restaurants,12272097,4.321428571428571,미쓰족발,Myth Jokbal,37.56436,126.983345
restaurants,12273066,4.5,꼬시나 에스파냐,Cocina Espana,37.497738,126.99706
restaurants,12287467,4.857142857142857,이태원더버거,Itaewon The Burger,37.533609999999996,126.99
restaurants,12318462,3.8,Olprima,Olprima,37.537945,126.99943999999999
restaurants,12327289,3.1,구스아일랜드브루하우스,Goose Island Brewhouse,37.493526,127.03211999999999
restaurants,12327314,4.5,스믓스,Sumussu,37.554615000000005,126.90336599999999
restaurants,12327419,4.0,낭만치맥 마곡나루점,Romantic Chi-mac Magongnaru,37.568146,126.82675
restaurants,12327434,4.95,에스트렐라,Estrella,37.56289,127.00063999999999
restaurants,12327490,5.0,죽이네 스시,Jugine Sushi,37.562934999999996,126.99287
restaurants,12347788,4.5,,Dooreyoo,37.582783,126.98508500000001
restaurants,12347811,4.666666666666667,다모토리,Damotori,37.541267,126.987076
restaurants,12357290,4.8125,에베레스트 커리월드레스토랑,Everest Curry World Restaurant,37.572044,127.01163000000001
restaurants,12358640,4.611111111111111,빅가이즈랍스타 명동점,Big Guy's Lobster Myeongdong,37.564147999999996,126.98449
restaurants,12358710,4.647058823529412,올드나이브스,Olde Knives,37.54314,126.98778
restaurants,12364738,4.978260869565218,네키드윙즈,Nekkid Wings,37.53379,126.98938999999999
restaurants,1237999,4.36864406779661,미가본,Migabon,37.563959999999994,126.98536000000001
restaurants,12381597,4.5,조개와,Jogaewa Seafood Bar & Restaurant,37.56462,126.984344
restaurants,12384635,4.928571428571429,델리인디아,Delhi India,37.548546,126.91972
restaurants,1239273,4.0,palsun,palsun,37.550327,126.99706
restaurants,12396162,5.0,티마하우스,Tima House,37.50277,127.03026000000001
restaurants,12402413,4.5,아꼬떼뒤파르크,A cote du Parc,37.546654,127.04158000000001
restaurants,12404343,4.625,육전식당 1호점,Yukjeon Sikdang 1st,37.574436,127.02434
restaurants,12415732,4.4,이태리재,Italyjae,37.57873,126.981804
restaurants,12415917,4.666666666666667,호랑이카레,Tiger Curry,37.582245,126.98692
restaurants,12419982,3.8235294117647056,황금목장,Golden Farm,37.56158,126.98458000000001
restaurants,12423674,2.833333333333333,루엔타이 삼성,Ruen Thai Samsung,37.515175,127.05243
restaurants,12434422,4.75,고베규카츠 상수점,Kobe Kyukatsu Sangsu,37.5484,126.91989
restaurants,12441492,4.4,"스테이, 모던 레스토랑","STAY, Modern Restaurant",37.513496,127.10258999999999
restaurants,12442890,5.0,에프앤비 가로수점,FNB Garosu,37.51894,127.02256000000001
restaurants,12452381,5.0,필동삼계탕,Pildong SamGyeTang,37.560303000000005,126.99581
restaurants,12453833,5.0,스뫼르,SMOR,37.562263,126.92591000000002
restaurants,12453968,4.333333333333333,황금목장 명동성당점,Golden Farm Myeongdong Cathedral,37.561440000000005,126.9846
restaurants,12459494,5.0,그레이스푼,GREYSPOON,37.518913,127.02198
restaurants,12479670,5.0,소미미단팥빵,Somimi Danpatppang,37.485115,126.98133
restaurants,12496220,4.866666666666666,안뜨레,Entree,37.505444,127.02892
restaurants,12496283,4.428571428571429,밤부베이커리,Bamvoo Bakery,37.55058,126.91089
restaurants,12511885,5.0,룸비니레스토랑,Lumbini Restaurant,37.572887,127.01454
restaurants,12523958,4.846153846153847,Section A,Section A,37.534775,126.99611999999999
restaurants,12543019,5.0,골든불,Golden Bull,37.53703,127.00136
restaurants,12547139,4.25,블렌드랩,Blend Lab,37.534542,126.98859399999999
restaurants,12547150,4.833333333333333,팔로피자,Falo Pizza,37.549820000000004,126.91565
restaurants,12562064,5.0,아이라이크씨푸드,I Like Seafood,37.483177000000005,126.89801000000001
restaurants,12578051,4.333333333333333,다운타우너 한남점,Downtowner Hannam,37.535843,127.00061000000001
restaurants,12597695,3.0,카보다로카,Cabo da Roca Wine Cafe,37.47782,126.95888000000001
restaurants,12609955,4.0,스시강,Sushi Kang,37.548953999999995,126.91481999999999
restaurants,12609962,3.8,쉼표말랑,Comma Mallang,37.514854,126.89459
restaurants,12613894,4.833333333333333,신포우리만두,Sinpo Woori Mandoo,37.57227,126.98669
restaurants,12631150,5.0,잘빠진메밀 2호점,Jalppajin Memil 2nd,37.574005,126.99145
restaurants,12631634,4.0,빅가이즈랍스타 롯데월드몰점,Big Guy's Lobster Lotte World Mall,37.51361,127.10336000000001
restaurants,12639413,4.0,쉐이크쉑 두타점,Shake Shack Doota,37.568943,127.009254
restaurants,12645875,4.9375,레트로게임바,RetroGameBar,37.550746999999994,126.92213999999998
restaurants,12657055,4.909090909090909,레드브릭 비스트로,Redbrick Bistro,37.53372,126.99212
restaurants,12669963,5.0,누들스테이션,Noodle Station,37.570976,126.97576000000001
restaurants,12680576,4.75,비아 메렝게,Via Merengue,37.558758000000005,126.93808999999999
restaurants,12686437,4.0,도깨비 불고기 - 동대문 본점,Dokkaebi Bulgogi - Dongdaemun Main Store,37.56767,127.00775
restaurants,12694466,4.666666666666667,916솜씨,916somsi koreandining,37.536415000000005,127.01212
restaurants,12698984,4.25,남산의사계절,N.fourseason Bbq,37.557037,126.97958
restaurants,12707188,5.0,어탕국수 동묘점,Eotang Guksu Dongmyo,37.57093,127.01635
restaurants,12715268,3.5,호식이두마리치킨 남산서울타워점,Hosigi Dumari Chicken Namsan Seoul Tower,37.551357,126.98841999999999
restaurants,12719317,4.166666666666667,더 마켓 키친,THE MARKET KITCHEN,37.570652,126.9757
restaurants,12726380,5.0,비스토리,B.story,37.55492,126.92698999999999
restaurants,12728511,4.2,빠리가옥,Maison de Paris,37.573338,126.99027
restaurants,12788281,4.846153846153847,잇텐고,Ittengo,37.54936,126.90926999999999
restaurants,12804718,4.090909090909091,시그니엘 서울 더 라운지,SIGNIEL Seoul The Lounge,37.512768,127.10255
restaurants,12804774,3.8333333333333335,바81,Bar 81,37.512794,127.10256000000001
restaurants,12815119,5.0,민속촌,Min Sok Chon,37.561832,126.98688999999999
restaurants,12816933,4.0,허유산 IFC몰점,Hui Lau Shan IFC Mall,37.521072,126.93113000000001
restaurants,12816960,3.6666666666666665,코요테살룬,Coyote Saloon,37.556534,126.97531000000001
restaurants,12817050,3.6666666666666665,엘 꾸비또,El Cubito,37.56974,126.97203999999999
restaurants,12837120,4.0,랑만,Langman,37.533756,126.99117
restaurants,12847250,5.0,구공탄곱창,Gugongtan Gopchang,37.548485,126.91848999999999
restaurants,12864496,4.0,All in a cup,All in a cup,37.554577,126.92931000000002
restaurants,12868747,5.0,하나샤브샤브,Hana Shabu Shabu,37.705555,127.18888999999999
restaurants,12876281,4.0,육전식당 4호점,Yukjeon Sikdang 4th,37.497986,127.03200000000001
restaurants,12878725,4.9444444444444455,셰프팔레트,Chef's Palette,37.504723,127.02722
restaurants,12905936,4.695652173913044,또이또이베트남,Toitoi Vietnam,37.533936,126.98901000000001
restaurants,12906960,4.0,네모집 역삼점,Nemojib Yeoksam,37.502995,127.03747
restaurants,12907012,3.6666666666666665,고기꾼김춘배 종로점,Gogikkun Kim Chun Bae Jongno,37.569138,126.98640400000001
restaurants,12909723,5.0,일상별식,Ilsangbyulsik,37.553635,126.92137
restaurants,12912792,3.7692307692307687,캄풍구,Kampungku,37.559096999999994,126.9859
restaurants,12930325,4.72,아보카두,Avocadoo,37.569373999999996,126.97945
restaurants,12932473,5.0,두꺼비사철탕,Dukkeobi Sacheoltang,37.562540000000006,127.00498
restaurants,12936573,4.5,바이트투헤븐,Bite2Heaven,37.496983,127.02883999999999
restaurants,12936608,4.909090909090909,Hajj Korea Halal Food,Hajj Korea Halal Food,37.533325,126.99802
restaurants,12944747,4.571428571428571,Buddha's Belly,Buddha's Belly,37.503334,127.005
restaurants,12945811,5.0,고사부,Koh Shifu,37.556892,126.975136
restaurants,12945884,4.5,서울리스타,Seoulista,37.557064000000004,126.97502
restaurants,12949477,5.0,The Black Whale Bar,The Black Whale Bar,37.54586,126.97397600000001
restaurants,12980597,4.75,팻알버트,Fat Albert's,37.534966,126.99321
restaurants,12993002,5.0,대독장 삼성역점,Daedokjang Samseong Station,37.507057,127.06289
restaurants,12998032,5.0,Donstar,Donstar,37.511944,126.92166999999999
restaurants,13009588,5.0,블루브릿지,Blue Bridge,37.534576,126.99713999999999
restaurants,13123633,5.0,유타로 이태원점,Utaro Itaewon,37.534729999999996,126.99803999999999
restaurants,13127719,4.428571428571429,탭퍼블릭,Tap Public,37.537094,127.00108
restaurants,13128200,4.857142857142857,WXYZ바,W Xyz Bar,37.562374,126.9816
restaurants,13165939,5.0,라이너스즈바베큐 해방촌점,Linus' Barbecue Haebangchon,37.542603,126.98743
restaurants,13165978,5.0,무오키,Muoki,37.51905,127.04213
restaurants,13222286,5.0,바베양장,Babe Yangjang,37.542465,127.05346999999999
restaurants,13222502,4.0,육대장 서울시청점,Yukdaejang Seoul City Hall,37.56706,126.97886000000001
restaurants,13229887,4.6,멘야산다이메 신사가로수길점,Menya Sandaime Sinsa Garosugil,37.518615999999994,127.02094
restaurants,13236614,4.333333333333333,도마,DOMA,37.483814,127.0454
restaurants,13236734,3.5,모즈,Mozu,37.5676,126.980896
restaurants,13236803,4.666666666666667,키키찬팅,KiKi Chanting,37.533640000000005,126.98898
restaurants,13275922,4.2,이삭토스트 명동성당점,Isaac Toast Myeongdong Cathedral,37.562946000000004,126.9855
restaurants,13276491,4.0,타따블,Tha' Table,37.52579,127.03811
restaurants,13287968,5.0,익스퍼,EXPER,37.56023,126.82652
restaurants,13305935,5.0,라투피,La Toupie,37.579956,126.889595
restaurants,13347473,4.8,북촌도담,Bukchon Dodam,37.577335,126.98523999999999
restaurants,13347480,4.714285714285714,새우잡이김춘배 홍대점,Shrimper Kim Chun Bae Hongdae,37.555157,126.92611000000001
restaurants,13354560,5.0,계절밥상 남산서울타워점,Season's Table Namsan Seoul Tower,37.551517,126.98853000000001
restaurants,13354710,5.0,사람사는고깃집 김일도 신사점,Saram Saneun Gogitjib Kim Il Do Sinsa,37.518738,127.02067
restaurants,13395792,5.0,모비딕,MobyDick,37.554626,126.919205
restaurants,13412769,4.666666666666667,루프탑바이류니끄,Rooftop by Ryunique,37.528403999999995,127.04012
restaurants,13412782,4.0,서촌기와집,Seochon Giwajib,37.576603000000006,126.9703
restaurants,13421036,5.0,미드나잇키친,Midnight Kitchen,37.542725,127.06953999999999
restaurants,13422329,4.0,꽃등심,Hwasung Ribeye,37.549892,126.95635
restaurants,13425457,4.0,파리에 다녀온 치킨,The Chicken from Paris,37.541866,127.06974
restaurants,13425537,4.0,,Kukhwa Garden,37.65733,127.06271000000001
restaurants,13436251,5.0,전통찻집 인사동,Traditional Tea House Insa-dong,37.57392,126.98478999999999
restaurants,13442519,5.0,헬로 베이루트,Hello! Beirut,37.563663,126.97027
restaurants,13446496,5.0,맘스터치 - 등촌점,Mom's Touch - Deungchon,37.548714000000004,126.86757
restaurants,13454617,5.0, - ,Apgujeong Gimbap,37.561836,127.06676000000002
restaurants,13476322,5.0,성수동 대림창고,COLUMN,37.541798,127.05648000000001
restaurants,13476366,4.666666666666667,BHC 치킨 동대문점,BHC Chicken Dongdaemun,37.565697,127.00641999999999
restaurants,13476380,4.0,찬장,Chanjang,37.50843,126.88873000000001
restaurants,13476515,4.0,미미청,Mimichung,37.478415999999996,126.95709
restaurants,13484717,5.0,대두족발,Daedujogbal,37.48333,126.94113
restaurants,13498227,5.0,Mogador Restaurant & Pub,Mogador Restaurant & Pub,37.55567,126.92818
restaurants,13505745,4.0,미스터순두부 - 상봉점,Mister Sundubu - Sangbong,37.598255,127.09071000000002
restaurants,13510099,4.0,청년다방 - 서울당산역점,Young Dabang Seoul Dangsan Station,37.532787,126.89828
restaurants,13516239,4.0,포하노이,Phohanoi,37.570717,126.99315
restaurants,13516243,4.0,플로팅 루프탑 바,Floating Rooftop Bar,37.555508,126.9215
restaurants,13516254,4.0,느루,Neuru,37.554584999999996,126.92915
restaurants,13516260,4.0,스시야오,Sushi Yao,37.56147,126.91799999999999
restaurants,13519338,4.0,소가횟집,Soga Hoejib,37.483955,127.04378999999999
restaurants,13529763,4.0,그랑나랑,Geurangnarang,37.546640000000004,127.06705
restaurants,13529772,5.0,쌤닭,Saem Dak,37.618176,127.07596000000001
restaurants,13529779,5.0,오코노미야키식당하나,Okonomiyaki Restaurant Hana,37.546172999999996,127.06768000000001
restaurants,13548355,5.0,수제만두 국시각시,Sujemandu Guksigaksi,37.578438,126.98911000000001
restaurants,13549381,5.0,회생식당,Bistro Revive,37.555725,126.92618999999999
restaurants,13557163,4.913043478260869,바른생갈비 - 종로묘동점,Bareun Saenggalbi - Jongno Myodong,37.57297,126.99123
restaurants,13567340,4.5,빅가이즈크랩,Big Guy's Crab,37.511234,127.09803000000001
restaurants,13567870,4.0,제이콥스 테이블,Jacob's Table,37.47044,126.93386000000001
restaurants,13567883,4.666666666666667,안국 153,ANGUK 153,37.576477000000004,126.98491000000001
restaurants,13568191,3.0,스타벅스 동묘앞역점,Starbucks- Dongmyo Station,37.572753999999996,127.01601000000001
restaurants,13568276,4.0,루뽀,LUPO,37.57277,126.97448999999999
restaurants,13568346,5.0,피자스쿨 방배역점,Pizza School Bangbae Station,37.48295,126.99536
restaurants,13581977,4.0,하영호신촌설렁탕,Hayoungho Sinchon Sulleongtang,37.48384,127.04508
restaurants,13582007,5.0,다락,Darak,37.544556,127.06918999999999
restaurants,13608113,4.5,청양양꼬치 - 금호점,Cheongyang Yangkkochi - Geumho,37.54817,127.01841999999999
restaurants,13620117,5.0,Sueno339,Sueno339,37.61252,126.97873
restaurants,1367398,4.1395348837209305,삼청각 다원,Samcheonggak Dawon,37.597157,126.98418999999998
restaurants,1367399,4.090909090909091,약천,Yakcheon,37.564,126.98443
restaurants,1370728,4.136363636363637,명동 순두부,Myoungdong Sundubu,37.563846999999996,126.9859
restaurants,1371510,4.147058823529412,에베레스트,Everest,37.5726,127.01274
restaurants,1371740,4.366771159874608,무교동 북어국집,Mugyodong Bugeokukjib,37.567886,126.979744
restaurants,1371742,4.0625,명동 영양 죽,Myongdong Yongyang Juk,37.564556,126.98351000000001
restaurants,1372979,3.4347826086956523,뉘조,Nwijo,37.575077,126.98543000000001
restaurants,1377632,3.5,너비집,Nobizib,37.563858,126.98592
restaurants,13778763,4.8,로드,LORD,37.53495,126.99301000000001
restaurants,1378912,4.25,양미옥,Yangmiok,37.566559999999996,126.99258999999999
restaurants,13798936,4.0,골목 흑돼지,Golmok Heuk Doiji,37.574425,127.01925
restaurants,13799101,3.0,브레드원,Bread One,37.5717,127.01597
restaurants,13803131,4.0,한돈신,Handonshin,37.515404,127.01888000000001
restaurants,13803145,4.25,남산 케미스트리,Namsan Chemistry,37.539772,126.99038999999999
restaurants,13808040,5.0,밀스버거,Mil's Burger,37.537144,126.97433999999998
restaurants,13808917,4.0,굴마을낙지촌 - 고속터미널점,Gulmaeul Nakjichon - Express Bus Terminal,37.50541,127.00708
restaurants,13809147,4.625,에머이 현대시티아울렛점,Emoi - Hyundai City Outlet,37.5687,127.00766999999999
restaurants,13809158,5.0,유성분식,Yuseong Bunsik,37.609516,126.99956999999999
restaurants,13809165,5.0,삼양동 순대 떡볶이,Samyangdong Sundae Ddeokbokki,37.625393,127.01865
restaurants,13809184,4.5,커피광,Coffee Gwang,37.564274,126.98831000000001
restaurants,13809388,5.0,아브라카다브라,Abracadabra,37.50297,127.02633
restaurants,13809965,4.0,미각담다,Migakdamda,37.478714000000004,126.9528
restaurants,13810130,4.0,Crystal Jade Shanghai Delight,Crystal Jade Shanghai Delight,37.50457,127.04945
restaurants,1381285,4.4,송죽,SongJuk,37.567997,126.97826
restaurants,13812949,5.0,산더미고깃집,Sandeomi Gogijip,37.571865,126.99959
restaurants,13813020,4.0,엘에스와이랩,LSY Lab,37.511925,126.9542
restaurants,13813709,5.0,원남가배,WNCoffee,37.575302,126.99758999999999
restaurants,13813734,5.0,  - ,Baune Naju Gomtang - Sejong University,37.550391999999995,127.07083
restaurants,13813749,4.0,오지 편한식당,Oji Friendly Dining,37.4778,126.95506999999999
restaurants,13817061,5.0,따라멜리19,Taramelli19,37.575665,126.92358
restaurants,13818932,5.0,몽크스부쳐,Monk's Butcher,37.53546,126.99915
restaurants,13819810,4.0,리북손만두,Ibuksonmandu,37.567215000000004,126.97853
restaurants,13822559,5.0,청시행,Cheongsihaeng,37.567017,126.99096000000002
restaurants,13822563,5.0,더 차이홍,The Chaihong,37.508194,127.05821999999999
restaurants,13823190,4.571428571428571,루프트 커피,Luft Coffee,37.562027,126.98904399999999
restaurants,13833621,4.0,SMT playground,SMT playground,37.52534,127.052
restaurants,13833636,3.6666666666666665,망원동티라미수 - 샤로수길점,Mangwondong Tiramisu - Syarosugil,37.47885,126.95416999999999
restaurants,13833671,4.5,신룽푸마라탕,Shinrungpu Malatang,37.564487,126.98329
restaurants,13833720,4.2,스타벅스 리져브 - 용산푸르지오써밋점,Starbucks Reserve - Yongsan Pruzio Summit,37.527462,126.96522
restaurants,13836656,4.0,88 양꼬치,88 Lamb Skewers,37.553425,126.86388000000001
restaurants,13837664,5.0,서울회관명동점,SeoulHoegwan Myeongdong,37.565253999999996,126.98732
restaurants,13837790,4.333333333333333,더플레이스 여의도IFC점,The Place Yeouido IFC,37.525059999999996,126.9248
restaurants,13840349,3.0,로봇 김밥 - 청담점,Robot Gimbap - Cheongdam,37.521767,127.05532
restaurants,13840359,5.0,차이만,Chaiman,37.543335,126.954
restaurants,13840510,5.0,사이 커피,Sai Coffee,37.566536,126.97797
restaurants,13846701,4.5,어글리베이커리,Ugly Bakery,37.558475,126.90353
restaurants,13846898,3.0,통영박이 충무김밥,Tongyeongbag-i Chungmu Gimbab,37.549225,126.91546000000001
restaurants,13847230,4.5,세븐티스라디오,70's Radio Pub,37.565509999999996,126.98397
restaurants,13847461,3.4,빅가이즈 씨푸드 홍대점,Big Guy's Seafood Hongdae,37.555496000000005,126.92155
restaurants,13847587,4.0,체스바,Chess Bar,37.531597,126.96421000000001
restaurants,13848465,4.0,블랑제리코팡,Boulangerie Copain,37.554854999999996,126.90047
restaurants,13848571,4.75,라화쿵부,Lahwa Kungbu,37.555240000000005,126.90632
restaurants,13859612,4.0,도동집,Dodong Jib,37.4973,126.91611
restaurants,13859720,4.666666666666667,아우어 베이커리,Our Bakery,37.5235,127.03687
restaurants,13873498,5.0,하루노유키,Harunoyuki,37.547153,127.04058
restaurants,13873662,4.5,끗집,Kkeusjib,37.53496,126.99197
restaurants,13875612,3.6666666666666665,강남면옥 명동점,Gangnam Myeonok Myeongdong,37.564133,126.98454
restaurants,13906624,4.75,포비,FourB,37.571659999999994,126.97989
restaurants,13906634,4.0,홍대화덕피자,Hongdae Stove Pizza,37.548164,126.91843
restaurants,13906644,4.75,남산도담,Namsandodam,37.562785999999996,126.99229
restaurants,13908401,5.0,비비드칩,Vividchip,37.616474,126.9227
restaurants,13919406,3.0,돈돈정 - 아이파크몰점,DONDONJUNG - IPARK mall,37.528853999999995,126.96404
restaurants,13919562,4.0,비포그레이,beforegray,37.546265000000005,126.91441999999999
restaurants,13921719,4.0,조개창고 방배점,Jogae Changgo Bangbae,37.485924,126.99428999999999
restaurants,13921795,4.5,72420,72420 (chlisaigon),37.477383,126.97863999999998
restaurants,13923365,4.0,익선동그집,Ikseon-dong Geujib,37.574062,126.98946000000001
restaurants,13923426,4.702127659574468,봄베그릴 이태원점,Bombay Grill Itaewon,37.533159999999995,126.99622
restaurants,13923448,4.0,청진 육식토끼,Cheongjin Yugsigtokki,37.57199,126.98048999999999
restaurants,13931900,4.0,압구정 함박,Apgujeong Hambak,37.525085,127.03866000000001
restaurants,13933996,2.5,샤이바나 - 광화문,Shy Bana - Gwanghwamun,37.568375,126.97827
restaurants,13934151,5.0,레이지쿠오레,Lazy Cuore,37.523705,127.03626000000001
restaurants,13934565,3.25,분짜라붐 강남점,BUN CHA RA BOOM,37.50007,127.02485
restaurants,13943539,5.0,푸에고,FUEGO,37.536762,126.99051999999999
restaurants,13947301,5.0,블랙리스트,Blacklist,37.53393,126.992
restaurants,13947555,5.0,더치랩 카페,Dutchlab Cafe,37.549652,126.91094
restaurants,13953153,5.0,육회먹은 연어,Salted Salmon,37.541092,127.07031
restaurants,13953270,4.5,갓식빵 건대,God Bread,37.54357,127.0704
restaurants,13953405,5.0,서교고메,Seogyo Gourmet,37.55614,126.91147
restaurants,13953428,5.0,익선동고기집,Ikseon-dong Meat House,37.573334,126.99081000000001
restaurants,13953451,3.75,삼송빵집 현대 아울렛 동대문점,Samsong Bakery Hyundai Outlet Dongdaemun,37.5687,127.00766999999999
restaurants,13953540,5.0,피키이터,Picky Eater,37.539974,126.94547
restaurants,13956813,3.5,르번미,Le Bunmie Magok,37.560814,126.83768
restaurants,13957216,4.0,꽃새우 영번지,Kkochsaeu Yeongbeonji,37.506134,127.04133
restaurants,13957226,4.0,담뿍담뿍,Damppukk Damppukk,37.56893,127.0088
restaurants,13964980,4.0,악마카레,Akmakare,37.56788,126.82656999999999
restaurants,13968804,4.0,오닭꼬치 - 건대점,Ohdakggochi - Konkuk Univ branch,37.540554,127.06193
restaurants,13968812,5.0,토스마이슈,Toss my Shoe,37.563625,126.97828999999999
restaurants,13970340,5.0,통영해물가 방배점,Tongyeong Seefood House Bangbae,37.476963,126.98568
restaurants,13975163,5.0,소울버킷,Soul Bucket,37.488457000000004,127.01427
restaurants,13975483,4.0,하남돼지집 마곡나루역점,Hanam Pig House - Magongnaru Station,37.570927000000005,126.82808999999999
restaurants,13975490,5.0,마치,March,37.56779,127.07206000000001
restaurants,13975541,4.0,진진수라,Jinjinsura Gwanghwamun,37.57035,126.98026999999999
restaurants,13975617,3.0,미쿡식당 대학로점,MeCook Sikdang Daehangno,37.58227,126.99991999999999
restaurants,13975643,4.0,앤드커피랩,And Coffee Lab & Bakery,37.5352,127.00096
restaurants,13976259,5.0,빈프로젝트 - 연남점,BEANPROJECT Yeonnam,37.561516,126.92015
restaurants,13979571,4.0,소문난왕곱창 건대점,Famous King Tripes Geondae,37.542347,127.07092
restaurants,13979954,4.0,자판기,Zapangi,37.554829999999995,126.90584
restaurants,13980185,5.0,의정부부대찌개,Uijeongbu Budaejjigae,37.555008,126.91365
restaurants,13989470,4.0,투피스,Twoffice,37.566513,127.00368
restaurants,13989473,5.0,섬진강재첩다슬기,River Seomjin Jaecheop Daseulgi,37.565395,127.00305
restaurants,13989520,4.0,파리바게뜨 - 행당점,Paris Baguette - Haengdang,37.555912,127.0291
restaurants,13989553,4.0,이디야커피 - 한티역점,Ediya Coffee - Hanti Station,37.49797,127.05428
restaurants,13992695,3.0,허니 쇼우가 족발,Honey Shouga Jokbal,37.564636,127.07771000000001
restaurants,13993348,4.0,웰빙멸치국수,Well Being Anchovy Noodles,37.538222999999995,127.07739
restaurants,13999749,4.428571428571429,광주식당,Gwangju Sikdang,37.58057,127.04368000000001
restaurants,13999881,5.0,만족오향족발 - 동대문점,Manjokohyang Jokbal - Dongdaemun,37.56687,127.00668
restaurants,14000488,3.6666666666666665,티번 - 창덕궁 본점,T Bun - Changdeokgung main branch,37.574272,126.99121000000001
restaurants,14000511,3.0,일리 카페,illy CAFFE,37.57094,126.9824
restaurants,14000518,4.0,라벤타나,La Ventana,37.57312,127.01155
restaurants,14000599,5.0,주지육림,Jujiyugrim,37.520294,127.03594
restaurants,14000857,4.333333333333333,창덕궁,Changdeokgung,37.573147,126.99113999999999
restaurants,1400141,3.784615384615385,원당감자탕 명동1호점,Onedang Gamjatang Myeongdong 1,37.561370000000004,126.98296
restaurants,14003276,5.0,우월,Woowol,37.52285,127.04485
restaurants,14004128,5.0,치즈웨이브,Cheese Wave,37.563522,126.97823999999999
restaurants,14007676,4.0,종로불백,Jongro Bulbaek,37.57224,126.99965
restaurants,14012037,4.0,청춘 쌀 핫도그,Chungchun Rice Hot Dog,37.502537,127.02436999999999
restaurants,14012165,3.0,멸치국수집,Enchovy Noodles House,37.475494,126.98126
restaurants,14014609,3.0,최우영수산,Choi Wooyoung Soosan,37.52104,126.89931000000001
restaurants,14015330,4.0,우노,Ooono,37.50495,127.05317
restaurants,14015344,3.0,도쿄등심 - 선릉점,Tokyo Sirloin - Seolleung,37.504734,127.048454
restaurants,14016334,4.0,Cultwo Chicken by Cultwo F&B,Cultwo Chicken by Cultwo F&B,37.552254,126.92083000000001
restaurants,14021277,4.0,엔돌핀김밥 - 삼성역점,Endorphin Gimbap - Samsung Station,37.507709999999996,127.06468000000001
restaurants,14021994,4.666666666666667,폴바셋 - 서울세관사거리점,Paul Basset - Seoul Segwan Sageori,37.515766,127.03573999999999
restaurants,14022080,4.0,생고기제작소 - 구의역점,Saenggogi Jejakso - Guui station,37.53658,127.084984
restaurants,14025577,4.2,오스테리아샘킴,Osteria Sam Kim,37.551303999999995,126.91089
restaurants,14037820,4.0,토박이,Tobagi,37.49425,127.12053999999999
restaurants,14038348,5.0,훠타이양 양다리구이,Huotaiyang Yangdarigui,37.567383,127.00765
restaurants,14038794,4.5,스트릿츄러스 - 롯데월드타워점,STREET CHURROS - Lotteworld Tower,37.51298,127.10395
restaurants,14038801,4.833333333333333,좋아해닭발,Joahae Dakbal,37.55345,126.92168400000001
restaurants,14041872,3.0,버거헌터 - IFC점,Burger Hunter - IFC,37.524937,126.925285
restaurants,14048094,4.0,쿠우쿠우 - 하비오점,QooQoo - Habio,37.485687,127.11932
restaurants,14049851,3.0,램플러스,Lamb Plus,37.475243,127.04549399999999
restaurants,14055243,3.0,부엉이돈가스 - 강남역태극당점,Owl's Cutlet - Gangnam Station Taegeugkdang,37.494656,127.03007
restaurants,14055327,4.0,낙원동고깃집,Nakwondong Gogitjip,37.573161999999996,126.9884
restaurants,14058036,5.0,한성칡냉면,Hansung Chilknaengmyeon,37.540115,127.08861499999999
restaurants,14058047,3.0,커피베이 - 종로5가역점,Coffee Bay - Jongro 5ga Station,37.571290000000005,127.001755
restaurants,14058061,3.0,마호가니,Mahogany,37.517006,126.90414399999999
restaurants,14058072,4.0,하오아,Haoa,37.549625,126.87777
restaurants,14058095,4.0,포멜로빈,Pomellow Bean,37.56785,126.929794
restaurants,14058203,5.0,공기,Gongi,37.537279999999996,127.00251000000002
restaurants,14061373,4.0,큰맘할매순대국 - 흑석동점,Keunmam Halmae Sundaeguk - Heukseok Dong,37.50803,126.96276999999999
restaurants,14061423,5.0,오가다 - 이대역점,Ogada - Ewha Womans University station,37.556595,126.946625
restaurants,14061427,5.0,Wooga,Wooga,37.524291999999996,127.0372
restaurants,14062205,4.0,원조평양냉면,Wonjo Pyeongyang Naengmyeon,37.57857,126.98218999999999
restaurants,14067903,3.6666666666666665,까페 마마스 - IFC,Cafe Mamas - IFC,37.524937,126.925285
restaurants,14067927,4.0,원조기사님분식,Wonjo Gisanim Bunsik,37.548435,126.94265
restaurants,14067954,4.0,키밀로,Camillo,37.55255,126.91288
restaurants,14067960,4.0,원기정,Wonki House,37.556477,126.90541999999999
restaurants,14068281,4.0,슈퍼주스,Super Juice,37.566536,126.97797
restaurants,14068411,3.0,포마토 - 남대문점,Pomato - Namdaemun,37.55901,126.98006000000001
restaurants,14068450,4.5,광화문국밥,Gwanghwamun Gugbap,37.568909999999995,126.97542
restaurants,14068598,3.0,광화문제비,Gwanghwamun Jebi,37.570442,126.97616599999999
restaurants,14068614,2.0,예카페,Ye Cafe,37.57295,126.979355
restaurants,14069616,5.0,Hooked Pok,Hooked Poke,37.566734000000004,126.98871000000001
restaurants,14074261,4.75,케밥인 - 건대,Kebab Inn - Konkuk Univ,37.54104,127.068275
restaurants,14074267,3.0,대구안지랑곱창막창 - 건대점,Daegu Anjirang Gobchangmakchang - Konkuk Univ,37.54257,127.06946
restaurants,14074273,4.0,방콕맨숀,Bangkok Mansion,37.582671999999995,126.99968999999999
restaurants,14074286,5.0,블루룸,Blue Room,37.582832,127.000275
restaurants,14074462,5.0,리카페,Recafe,37.571457,127.00057
restaurants,14074603,5.0,고메식당,Gourmet Sikdang,37.569363,126.98428999999999
restaurants,14074730,5.0,미각샤브샤브,Migak Shabushabu,37.621506,126.9241
restaurants,14074741,4.0,라멘에스,Lamen S,37.57926,126.98402
restaurants,14080826,5.0,Obok Miyeok - Yeoyido,오복미역 - 여의도,37.526592,126.91875
restaurants,14080890,5.0,세븐플로어 - 홍대점,Seven Floor - Hongdae,37.555202,126.92097
restaurants,14081202,4.0,체부동잔치집,Chebudong Janchijip,37.576473,126.97148999999999
restaurants,14082403,5.0,카페부미,Cafe Bumi,37.572067,126.99152
restaurants,14082454,4.0,맥주마트 - 구의역,Beer Mart - Guui Station,37.53843,127.08483000000001
restaurants,14086796,4.0,리틀브라운 - 원남점,Little Brown - Wonnam,37.575607,126.99756000000001
restaurants,14086822,4.0,청춘 떡볶이 & 국밥,Cheongchun Ddeokbokki & Gukbap,37.572884,127.00161000000001
restaurants,14087196,4.0,함께식탁,Hamggye Siktak,37.601279999999996,126.95618999999999
restaurants,14089972,5.0,신마포갈매기 - 홍대2호점,New Mapo Galmaegi - Hongdae 2nd,37.55396,126.92182
restaurants,14089977,5.0,일 키아쏘,Il Chiasso,37.537346,127.000244
restaurants,14090431,4.5,오프아워,Off-Hour,37.487995,127.03053999999999
restaurants,14090441,4.95,853,853,37.574707000000004,126.98508999999999
restaurants,14093962,4.0,유메,Yume,37.54919,126.916214
restaurants,14094010,4.0,엘 따뻬오,El Tapeo,37.476845000000004,126.96178
restaurants,14094022,4.0,더멜팅팟,The Melting Pot,37.478317,126.95608
restaurants,14094036,4.0,거북이 닭강정,Geobugi Chicken,37.47874,126.95506
restaurants,14095000,5.0,바네스플라워,Vaness Flower,37.518184999999995,127.02179
restaurants,14095006,4.0,식물학,Sikmulhak,37.518383,127.02163
restaurants,14109068,3.0,빚짜 - 교보문고합정점,Beezza - Gyobo Mungo Hapjeong,37.549965,126.910706
restaurants,14109079,4.0,플랫랜드,Flat Land,37.556453999999995,126.915085
restaurants,14109087,4.0,독립카츠,Dokrip Katsu,37.561306,126.92235600000001
restaurants,14109101,4.0,라토크,La Toque,37.5094,127.024796
restaurants,14112207,5.0,더 라운지,The Lounge,37.50858,127.06416999999999
restaurants,14112690,5.0,발리인망원,Bali in Mangwon,37.553265,126.90598999999999
restaurants,14112749,4.0,련남면옥,Ryeonnam Myeonok,37.56281,126.926025
restaurants,14112801,5.0,Amma Indian Restaurant,Amma Indian Restaurant,37.553470000000004,126.920235
restaurants,14112819,4.0,천희양꼬치,Cheonhee Shekel,37.477837,127.04108000000001
restaurants,14112990,5.0,남보라운지,Nambo Lounge,37.58852,127.00716399999999
restaurants,14116542,5.0,부처스 키친,BUKI,37.561572999999996,126.92647
restaurants,14116758,5.0,연남슈퍼,Yeonnam Super,37.56151,126.92681
restaurants,14116813,2.0,무진옥,Mujinok,37.56051,126.97783999999999
restaurants,14116830,4.0,차알,Cha R,37.535984,126.97135
restaurants,14121742,4.0,내고향 횡성 한우정육점 식당,Naegohyang Hoengseong Hanujeongyukjeom Restaurant,37.512035,127.10858999999999
restaurants,14121913,4.0,슬리핑포레스트,Sleeping Forest,37.563595,126.92317
restaurants,14125693,4.0,오코와,Okowa,37.560223,126.925125
restaurants,14125741,5.0,연교,Yeongyo,37.561565,126.92665
restaurants,14132349,4.333333333333333,숙달돼지 - 종각점,Sukdal Doeji - Jonggak,37.569363,126.9841
restaurants,14138767,4.0,마실자리,Masiljari,37.623615,127.078026
restaurants,14141515,4.375,해도식당,Haedo Sikdang,37.56499,126.98137
restaurants,14141524,4.0,귀일교자 - 경리단길점,Gwiilgyoja - Gyeonglidan,37.5392,126.98942
restaurants,14141570,4.5,다운타우너 - 청담점,Downtowner - Cheongdam,37.52397,127.03856
restaurants,14141665,5.0,빛나는 바다 - 자양점,Bichnaneun Bada - Jayang,37.532616,127.08561
restaurants,14141820,4.0,통돼지찌개집 - 방이점,Whole Pig Stew House - Bangi,37.513927,127.10971
restaurants,14148996,5.0,라운더스 라운지,Rounders Lounge,37.500805,127.03196000000001
restaurants,14156169,3.0,스몰하우스 빅도어 비스트로,Smaill House Big Door Bistro,37.566914000000004,126.98194
restaurants,14156230,4.333333333333333,쥬벤쿠바,Juven Cuba,37.47762,126.95728999999999
restaurants,14156670,5.0,유로스타커피,Euro Star Coffee,37.551918,127.13388
restaurants,14163830,3.0,큰맘할매순대국 - 서교점,Keunmam Halmae Sundaeguk - Seogyo,37.548904,126.91743500000001
restaurants,14163888,5.0,투썸플레이스 - 마포공덕점,A Twosome Place - Mapo Gongdeok,37.545895,126.95151000000001
restaurants,14167492,3.0,노가리슈퍼 - 익선점,Nogari Super - Ikseon,37.572823,126.99004
restaurants,14167500,4.0,쿠벤 - 광화문점,Ku Ben - Gwanghwamun,37.570805,126.97985
restaurants,14167509,3.0,금붕어식당,Keumbungeo Kitchen,37.550309999999996,126.90561000000001
restaurants,14192240,5.0,송치마을,Songchi Maeul,37.489956,127.144714
restaurants,14192301,4.0,하이사이,Hai Sai,37.494675,127.14312
restaurants,14192321,4.0,오마뎅 - 거여점,Omadeng - Geoyeo,37.489956,127.144714
restaurants,14199653,5.0,사거리미술전,Sageori Misuljeon,37.484173,126.99508999999999
restaurants,14208186,4.0,블루포트 - 이화여대점,Bluepot - Ewha Womans University,37.564254999999996,126.95031000000002
restaurants,14208202,4.0,브롱스 - 연남점,Bronx - Yeonnam,37.558445,126.92168999999998
restaurants,14208211,5.0,서울트럭,Seoul Truck,37.520070000000004,127.0995
restaurants,14208415,4.0,펀비어킹 - 송파잠실새내역점,Fun Beer King - Songpa Jamsilsaenae station,37.510436999999996,127.081474
restaurants,14208438,4.0,마루갈비,Malu Galbi,37.531944,127.08656
restaurants,14208529,5.0,마쯔리초밥,Matsuri Sushi,37.53856,127.08803
restaurants,14208538,5.0,누들바 미연,Noodle Bar Myeon,37.52695,127.03931000000001
restaurants,14212856,2.0,아오리 라멘 - IFC몰점,Aori Ramen - IFC Mall,37.524937,126.925285
restaurants,14213067,4.0,마이무,My Moo,37.476967,126.9586
restaurants,14213845,3.0,A4 아시아키친,A4 Asian Kitchen,37.545177,126.94755
restaurants,14214007,4.0,팩,The Factory M,37.545177,126.94755
restaurants,14214180,5.0,우주,Woojoo,37.49776,126.99654
restaurants,14214220,2.0,남포동수제비 - 현대시티아울렛 동대문점,Nampodong Sujebi - Hyundai City Outlet Dongdaemun,37.5687,127.00766999999999
restaurants,14214240,5.0,경호갈비,Gyeongho Galbi,37.575443,126.98385
restaurants,14214335,5.0,하니네,Hanine,37.570040000000006,126.9996
restaurants,14214412,4.5,스터번,Stubborn,37.500595000000004,127.03283
restaurants,14214607,4.0,싸움의 고수 - 홍대점,Ssaumui Gosu - Hongdae,37.55242,126.92235600000001
restaurants,14231681,4.0,안동할매청국장,Andong Halmae Cheonggukjang,37.58891,127.00464
restaurants,14231700,5.0,블로마,Blomma,37.631508000000004,127.0366
restaurants,14231709,4.0,호호미역,Hoho Miyeok,37.570805,126.97985
restaurants,14231776,5.0,이타카,Ithaca,37.527924,127.0363
restaurants,14236693,4.0,본명동찌개마을,Bon Myeongdong Jjigae Maeul,37.509228,127.12723999999999
restaurants,1437932,4.532258064516129,피에르 가니에르 서울,Pierre Gagnaire Seoul,37.566113,126.981804
restaurants,1438123,4.552631578947368,콘티넨탈,Continental,37.556020000000004,127.0052
restaurants,14386649,5.0,더 하우스 요한,The House Yohan,37.509132,127.06085
restaurants,14386653,4.0,킹 케밥,King Kebab,37.53423,126.993416
restaurants,14391488,4.0,라우트 66 아메리칸 바 - 이태원,Route 66 American Bar - Itaewon,37.534134,126.99209599999999
restaurants,14440815,5.0,롱침,Long Chim,37.55406,126.92091
restaurants,14440885,5.0,따빠마드레,Tapa Madre,37.573017,126.9691
restaurants,14502135,5.0,송화산시도삭면,Songhwa Sansidosagmyeon,37.53787,127.0665
restaurants,14504531,4.0,아키야마,Akiyama,37.547882,127.05696999999999
restaurants,14504635,4.0,해남집,Haenamjib,37.497425,127.11911
restaurants,14558170,4.0,인키친,In Kitchen,37.493557,127.14541000000001
restaurants,14562375,4.0,해피 요리사,Happy Yolisa,37.48199,126.996124
restaurants,14598160,5.0,디스코서프,Disco Surf,37.543194,126.98808000000001
restaurants,14759650,4.75,살롱순라,Salon Sulla,37.574112,126.99167
restaurants,14768046,1.0,미분당,Mibundang,37.503754,127.02621
restaurants,14768051,5.0,그린팬트리,Green Pantry,37.562670000000004,126.92535
restaurants,14768253,4.0,포씨드,4Seed,37.60456,126.96598
restaurants,14768281,5.0,돼지고깃집 훈,Pork Restaurant Hun,37.559259999999995,126.92573999999999
restaurants,14771018,4.0,카쿠벤,Kakuben,37.510063,127.10862
restaurants,14771433,4.0,철순이네 김치찌개,Cheolsunine Kimchi Jjigae,37.5484,127.06973
restaurants,14790223,5.0,삼곱식당,Samgob Sikdang,37.545159999999996,127.05508
restaurants,14790244,4.0,브리너,Brinner,37.543446,127.04451
restaurants,14790397,4.0,교촌치킨 - 연남점,Kyochon Chicken - Yeonnam,37.563385,126.92074
restaurants,14790408,3.5,허머스키친 - 디타워점,Hummus Kitchen - D Tower,37.566536,126.97797
restaurants,14790567,3.0,호호밀,Hohomeal,37.447548,126.45808999999998
restaurants,14790832,4.0,두끼 - 건대점,Dookki - Konkuk University,37.566536,126.97797
restaurants,14790992,5.0,펍포레스트 서울,Pub Forest Seoul,37.542786,127.04888000000001
restaurants,14794569,3.0,서래 부대찌개와 차돌구이,Seorae Budaejjigae wa Chadolgui,37.499577,126.99788000000001
restaurants,14794677,3.0,산들해 문정점,Sandeulhae Munjeong,37.49411,127.01061000000001
restaurants,14794785,4.0,양재 오제 섞어,Angjae Oje Seokkeo,37.48102,127.04146999999999
restaurants,14794813,4.5,소애담,Soaedam,37.554462,126.97672
restaurants,14794881,5.0,열정족발,Chef's Jokbal,37.490307,127.08547
restaurants,14794921,5.0,포브라더스 - 종로점,Four Brothers - Jongno,37.57071,126.983574
restaurants,14794985,5.0,때때로 고기,Sometimes Pork,37.56903,126.98857
restaurants,14795317,4.0,니뽕내뽕 - 코엑스점,Nipong Naepong - COEX,37.510193,127.058586
restaurants,14800870,4.0,수원성,Swonseong,37.565740000000005,126.93046000000001
restaurants,14801059,5.0,PKM 가든카페,PKM Garden Cafe,37.58506,126.9797
restaurants,14802018,5.0,띤띤,Tintin,37.568375,126.97827
restaurants,14821296,3.0,왕왕수제비,Wang Wang Sujebi,37.565342,126.97919499999999
restaurants,1485843,4.519230769230768,전통 다원,Jeontong Dawon,37.57452,126.98558999999999
restaurants,1485848,3.7469879518072284,삼청동 수제비,Samcheon-dong Sujebi,37.584579999999995,126.98208000000001
restaurants,14860986,2.0,개미집 - 종로점,Gaemijip - Jongro,37.568913,126.9859
restaurants,14888099,5.0,굽네치킨 - 종로4가점,Goobne Chicken - Jongno 4 Ga,37.57257,126.99743000000001
restaurants,14888109,5.0,화룽마라룽샤 - 명동,Hwalungmalalungsya - Myeong-dong,37.565495,126.98365
restaurants,14888220,5.0,광희칼국수,Gwanghui Kalguksu,37.572277,126.99973999999999
restaurants,14901535,4.0,연어 그리고 마을,Salmon and Town,37.52146,126.93066
restaurants,14901565,4.0,아티제 - 여의도신영증권점,Artisee - Yeouido Shinyoung Stock,37.521255,126.92886999999999
restaurants,14901586,3.0,벌교한상,Bulgyo Hansang,37.485817,127.09937
restaurants,14901602,2.0,돌배기집 - 종로 관철점,Dolbaegijib - Jongno Gwancheol,37.569035,126.98705
restaurants,14901716,2.0,코끼리만두,Kokiri Mandoo,37.555279999999996,126.85728
restaurants,14911758,5.0,쌀 쿡스,Ssal Cooks,37.5604,126.978935
restaurants,14912174,4.0,코코이찌방야 - NC백화점강서점,Coco Ichibanya - NC Department Store Gangseo,37.559902,126.840515
restaurants,1506883,4.076923076923077,다미 죽,Tami Juk,37.56192,126.98411000000002
restaurants,1506886,4.130952380952381,새마을 식당 논현 본점,Saemaeul Sikdang Nonhyeon Main Store,37.507565,127.0238
restaurants,1522880,4.2444444444444445,명월관,Myongwolgwan,37.552933,127.11045
restaurants,1550206,4.273809523809525,페닌슐라,Peninsula Italian Restaurant & Bar,37.565834,126.98138999999999
restaurants,1568647,4.378378378378378,Namu,Moegi,37.555347,127.11113999999999
restaurants,1648952,3.9117647058823533,본죽 명동점,Bonjuk Myeongdong,37.561535,126.98538
restaurants,1649707,4.2727272727272725,더밥,Deobap,37.581795,127.00018999999999
restaurants,1735162,3.863636363636364,안동찜닭,Andong Jjimdak,37.563725,126.98521399999998
restaurants,1745653,4.387096774193549,원스인어블루문,Once In A Blue Moon,37.525659999999995,127.03991
restaurants,1745654,3.901960784313725,페트라,Petra Restaurant,37.53453,126.98742
restaurants,1758818,4.090909090909091,원조 쌈밥집 논현 본점,Wonjo Ssambabjib Nonhyeon Main,37.506966,127.02416000000001
restaurants,1776258,4.666666666666667,사월에 보리밥,Sawolui Boribab,37.526096,127.02881000000001
restaurants,1777631,4.097087378640777,신선설농탕 명동점,Sinseon Seolleongtang Myeongdong,37.563922999999996,126.98531000000001
restaurants,1777647,3.39622641509434,백제삼계탕,Baegje Samgyetang,37.56325,126.98415
restaurants,1800094,4.545454545454546,가메골 손만두,Gamekol Son Wangmandu,37.558426000000004,126.97726399999999
restaurants,1831093,4.857142857142857,삼다연,Samda-yeon,37.501556,127.052605
restaurants,1852670,4.189655172413794,왕 타이,Wang Thai,37.534313,126.99065
restaurants,1857138,4.091666666666667,울프하운드 아이리쉬 펍 & 레스토랑,The Wolfhound Irish Pub & Restaurant,37.53398,126.99342
restaurants,1863000,3.914285714285714,명동전주중앙회관,Jeonju Jungang Restaurant,37.5612,126.98396000000001
restaurants,1863015,3.6772151898734178,고궁 명동점,Gogung Myeongdong Store,37.561714,126.98641
restaurants,1892427,3.8181818181818175,우리 가든,Woori Garden,37.561040000000006,126.986015
restaurants,1892430,4.1395348837209305,함흥면옥,Hamheung myeonok,37.562748,126.98548999999998
restaurants,1892436,4.363636363636363,일품향,Ilpumhyang,37.562183000000005,126.98248000000001
restaurants,1911506,3.3695652173913038,후터스,Hooters,37.505,127.02618999999999
restaurants,1916323,3.3461538461538463,화로연 명동점,Hwaroyeon Myeongdong,37.564785,126.98442
restaurants,1918214,4.594594594594595,황생가칼국수,Hwangsaengga Kalguksu,37.5801,126.980484
restaurants,1933588,3.7429718875502007,왕비집 명동 본점,Wangbijib Myeongdong Main Store,37.561714,126.98638999999999
restaurants,1951780,4.3,통통 돼지,TongTong Dwaeji,37.557390000000005,126.937836
restaurants,1965082,4.219047619047618,불고기 브라더스 서울 파이낸스 센터점,Bulgogi Brothers Seoul Finance Center Store,37.56847,126.97765
restaurants,1973582,3.8163265306122454,제이제이 마호니즈,J.J. Mahoney's,37.53954,126.99781000000002
restaurants,1978666,4.72655690765927,구스토 타코,Gusto Taco,37.54811,126.92295
restaurants,2015786,4.2727272727272725,산봉화로구이,Sanbong Hwarogui,37.52572,127.03761000000002
restaurants,2045921,4.0,칠리 킹,Chili King,37.534733,126.99172
restaurants,2052667,4.333333333333333,할머니 칼국수,Halmeoni Kalguksu,37.57268,126.99089
restaurants,2067899,3.95,망고 식스 압구정점,Mango Six Cafe Apgujeong Store,37.523594,127.0371
restaurants,2067900,4.192982456140351,봉추 찜닭 명동점,Bongchu Chimtak Myeongdong Store,37.564296999999996,126.98487
restaurants,2072711,4.333333333333333,루나아시아,Luna Asia Indian Restaurant,37.509747,127.056725
restaurants,2080573,4.25,원당감자탕 명동2호점,Onedang Gamjatang Myeongdong 2,37.561394,126.98299399999999
restaurants,2090976,4.351851851851852,오설록 티 하우스 인사동점,O'sulloc Tea House Insadong Store,37.574345,126.98442
restaurants,2103934,4.193548387096774,자하손만두 본점,Zaha Sonmandu Main Store,37.593067,126.96616000000002
restaurants,2162051,3.8676470588235294,크래프트웍스 남산점,Craftworks Taphouse and Bistro Namsan,37.538773,126.98723999999999
restaurants,2170347,4.5856079404466525,죠티인도레스토랑,Jyoti Indian Restaurant,37.554913,126.93795
restaurants,2172384,3.875,빠네파스타,Pane Pasta,37.562675,126.985405
restaurants,2172404,4.075,옴 레스토랑 카페,Om Restaurant & Cafe,37.586975,126.98163999999998
restaurants,2172425,4.428571428571429,노다보울 가로수길점,Noda Bowl Garosugil,37.52043,127.0226
restaurants,2173821,4.214428857715431,단풍나무 집 이태원점,Maple Tree House Itaewon,37.534863,126.99396000000002
restaurants,2219129,3.656862745098038,하동관,HaDongGwan,37.564423,126.98501999999999
restaurants,2219150,4.357142857142857,소공죽집,Sogong JukJip,37.562884999999994,126.97818999999998
restaurants,2219164,4.111111111111111,마이쏭,My Ssong,37.52335,127.03573
restaurants,2219210,4.291666666666667,사월에 보리밥 강남점,April Boribap (Apgujeong),37.526165,127.02892
restaurants,2219211,4.5555555555555545,김북순 큰남비집,KimBuksun's Big Pot House,37.518536,127.02296399999999
restaurants,2224798,4.875,미코,Miko,37.525402,127.04919
restaurants,2224800,3.736842105263158,My Thai,My Thai,37.534667999999996,126.9945
restaurants,2228878,3.5,오리마당,Ori Madang,37.564285,126.9775
restaurants,2228895,4.0,청담 영양센터,Cheongdam Yeongyang Center,37.518982,127.05128
restaurants,2228898,4.518518518518519,화동옥,HwaDongOk,37.57931,126.98696000000001
restaurants,2228907,4.575,수연 산방,Suyeon Sanbang,37.595,126.99471000000001
restaurants,2228910,4.112903225806451,연남서식당,Yeonnamseo Sikdang,37.554085,126.93522
restaurants,2228923,3.7407407407407414,오향족발,Ohyang Jokbal,37.54453,126.95316000000001
restaurants,2228941,4.2,원조 마산 할매 아구찜,Wonjo Masan Halmae AguJjim,37.515343,127.019066
restaurants,2228966,4.201754385964914,발우공양,Balwoo Gongyang,37.573879999999996,126.98316000000001
restaurants,2228988,4.349206349206349,명동닭한마리 본점,Myeongdong Dakhanmari Main,37.570335,127.005905
restaurants,2229014,3.333333333333333,곰솥집,GomSotJip,37.565365,126.98357
restaurants,2229020,4.0,제주미항 - 명동점,Jeju Mihang - Myeongdong,37.563595,126.98395
restaurants,2229023,4.090909090909091,쭈꾸미 불고기,Zzukkumi Bulgogi,37.561886,126.99221000000001
restaurants,2229034,4.127358490566038,오설록 티 하우스 명동점,O'sulloc Tea House Myeongdong,37.564254999999996,126.984474
restaurants,2230251,4.2631578947368425,청진옥,Cheongjinok,37.571690000000004,126.97946
restaurants,2230268,4.014705882352942,진옥화할매원조닭한마리,Jin Ok Hwa Original Chicken Restaurant,37.570297,127.00576000000001
restaurants,2230269,4.275,오장동 흥남집,Ojangdong Heungnamjip,37.56438,127.00044
restaurants,2230300,4.2222222222222205,이리 카페,Yri Cafe,37.55402,126.92783999999999
restaurants,2230312,3.947368421052632,신촌 부대 찌개,Sinchon Budae Zzigae,37.555702000000004,126.93593
restaurants,2236334,4.233333333333333,더 키친 살바토레 쿠오모,The Kitchen Salvatore Cuomo,37.525562,127.03606
restaurants,2241598,3.9090909090909087,스쿨푸드 가로수길점,School Food Garosu-gil,37.518246000000005,127.02333
restaurants,2241599,3.7924528301886786,마복림 원조 할머니집 떡볶이,Maboknim Wonjo Halmeonijip Ttokbokki,37.563183,127.01507600000001
restaurants,2241609,4.625,무등산,Mudeungsan,37.521774,127.03993999999999
restaurants,2248137,4.0344827586206895,원조 원할매 닭한마리,Wonjo WonHalmae Dakhanmari,37.570335,127.005424
restaurants,2255327,4.0,을밀대,EulMilDae,37.49512,127.03017
restaurants,2260064,4.408163265306122,버드나무집 역삼점,Bud Namujip Yeoksam,37.50526,127.04193000000001
restaurants,2261239,3.5357142857142856,엘본 더 테이블 가로수길 본점,ELBON the table Garosugil Store,37.52332,127.02231
restaurants,2265905,4.5,달개비 정동점,Dalgaebi Jeongdong Store,37.566772,126.97608000000001
restaurants,2270507,3.724137931034482,우스마니아,Usmania,37.533195,126.99568000000001
restaurants,2273348,3.8333333333333335,안동 찜닭 명동 2호점,Wonjo Andong Zzimdak ( Myeongdong II ),37.564045,126.983154
restaurants,2310251,3.9090909090909087,현궁,HyeonGung,37.5739,126.97894
restaurants,2314097,4.0,옹달샘,OngDalSaem,37.566715,126.97793
restaurants,2327459,3.890909090909091,부다스밸리 이태원점,Buddha's Belly Itaewon,37.534294,126.98858
restaurants,2330074,4.185185185185185,더 팀버 하우스,The Timber House,37.508537,127.06415
restaurants,2330075,4.045454545454546,기욤,Guillaume,37.52418,127.041046
restaurants,2330577,4.549397590361446,브라이 리퍼블릭,Braai Republic,37.5336,126.99068
restaurants,2333436,3.7352941176470575,비스트로 서울,Bistro Seoul,37.51106,127.05808
restaurants,2355149,4.8,수정 식당,SuJeong Sikdang,37.569179999999996,126.988396
restaurants,2355150,4.333333333333333,고냉지 서울역점,Gonaengji Seoul Station,37.55815,126.97283
restaurants,2367772,4.375,일미 간장 게장,Ilmi Ganjang Gejang,37.570617999999996,127.07136499999999
restaurants,2372525,4.076923076923077,타지 명동점,TAJ - Tase of India (Myeongdong Store),37.564254999999996,126.98643999999999
restaurants,2390991,4.315789473684212,에코 밥상,Eco Babsang,37.576027,126.97312
restaurants,2391063,4.090909090909091,엘쁠라또 신사동 가로수길점,El Plato Garosugil,37.519386,127.02462
restaurants,2393832,3.891304347826087,사보텐 강남역점,Saboten Gangnam Station Store,37.499924,127.0256
restaurants,2405319,4.235294117647058,이공오도씨,205,37.584587,126.99779
restaurants,2419278,3.842105263157895,아미소,Amiso,37.562504,126.984146
restaurants,2422441,3.724637681159421,스시 조,Sushi Cho,37.564453,126.97970600000001
restaurants,2428983,4.083333333333333,젤렌 이태원 본점,Zelen,37.534996,126.99238000000001
restaurants,2454732,4.8,Parmi Italiano,Parmi Italiano,37.5689,126.977
restaurants,2458284,3.1153846153846154,디마떼오,Di Matteo,37.580036,127.00391
restaurants,2458300,4.128205128205129,베이비 기네스,Baby Guiness,37.534843,126.99275
restaurants,2458766,4.671232876712328,랩24,Lab XXIV (Lab 24),37.524834000000006,127.04140500000001
restaurants,2476793,3.6666666666666665,C 그릴,C Grill,37.509396,127.06096000000001
restaurants,2476809,4.1951219512195115,바토스 이태원점,Vatos Urban Tacos Itaewon,37.534306,126.99026
restaurants,2479028,4.3243243243243255,피자 필,The Pizza Peel,37.533974,126.98908
restaurants,2483962,4.363636363636363,물뛴다,Muldwinda,37.563263,126.96203
restaurants,2483968,4.3023255813953485,투스카니,Tuscany,37.565292,126.97788
restaurants,2483973,2.25,햇살 숯불 고갈비 쭈꾸미,HaetSsal SutBbul Gogalbi Zzukumi,37.564938,127.00628999999999
restaurants,2487456,3.6176470588235294,코파카바나 그릴,Copacabana Grill,37.534946000000005,126.992935
restaurants,2487466,2.5217391304347827,작은 인디아,Little India,37.573097,126.986176
restaurants,2524701,4.433962264150943,품 서울,Poom Seoul,37.549103,126.98333000000001
restaurants,2524708,4.611111111111111,더 레스토랑,The Restaurant,37.580807,126.98029
restaurants,2537411,4.0,비스트로 드 욘트빌,Bistrot de Yountville,37.5259,127.04122
restaurants,2546646,2.658536585365854,아이리쉬 펍 더블린 테라스,Irish Pub Dublin Terrace Restaurant & Bar,37.501999999999995,127.02645
restaurants,2626435,4.476744186046512,피스트,Feast,37.508759999999995,126.88976000000001
restaurants,2635690,4.5517241379310365,진 원조 보신 닭한마리 본점,Jin Wonjo Dakhanmari Main Store,37.570353999999995,127.00595
restaurants,2658453,4.375,볼가,Volga,37.574455,126.98521000000001
restaurants,2690788,3.844660194174757,사프란 레스토랑,Saffron Restaurant,37.56423,126.98301000000001
restaurants,2691426,4.0,웃사브 홍대점,UTSAV Hongdae,37.549324,126.92241999999999
restaurants,2693506,4.579545454545454,무궁화,Mugunghwa,37.56472,126.98078000000001
restaurants,2696962,4.75,소반,Soban,37.494583,127.0461
restaurants,2707903,4.689655172413794,슌미,Shunmi,37.5053,127.02898
restaurants,3164591,4.764705882352942,카페 드셰프,Cafe de chef,37.56031,127.00227
restaurants,3191668,4.5,희죽희죽,Huijuk Huijuk,37.561718,126.98795
restaurants,3200324,4.5240174672489095,정식당,Jungsik,37.525696,127.04111499999999
restaurants,3222285,4.066666666666666,코티지 카페 보리,Cottage Cafe Borie,37.532109999999996,126.99603
restaurants,3227530,4.243902439024391,진미식당,Jinmi Sikdang,37.55065,126.95578
restaurants,3232783,3.111111111111111,한국 갈비,Korean Galbi,37.562515000000005,126.98206
restaurants,3233031,4.285714285714286,갯벌의진주,Gaeppeore Jinju,37.506927000000005,127.02441
restaurants,3249543,3.8571428571428568,오발탄 역삼점,Obaltan Yeoksam,37.513626,127.05345
restaurants,3257072,3.0,사물놀이,SamulNori,37.5047,127.04513
restaurants,3257200,4.333333333333333,이가신가,LeeGaShinGa,37.581676,126.98534
restaurants,3263889,3.8181818181818175,KFC 돈암동1,KFC Donamdong Store 1,37.592117,127.01766
restaurants,3263942,3.8666666666666663,훌리오 종로점,Julio Mexican Cuisin Jongno Store,37.568626,126.98586
restaurants,3297967,4.346774193548387,까페 마마스 시청점,Cafe Mamas City Hall,37.5672,126.97911
restaurants,3329965,4.24468085106383,파리바게뜨 강남역점,Paris Baguette Gangnam Station,37.4995,127.02723999999999
restaurants,3336085,4.235294117647058,진사댁 - 명동,Jinsadaek - Myeongdong,37.563408,126.98393999999999
restaurants,3371655,4.685185185185184,파올로 데 마리아,Paolo De Maria,37.596309999999995,126.96427
restaurants,3396019,3.375,새마을 식당 연신내역점,Saemaeul Sikdang Yeonsinnae Station Store,37.61909,126.9183
restaurants,3399675,5.0,깡통의 전설,The legend of Can,37.505404999999996,127.0588
restaurants,3415820,4.419354838709677,라자트,LazzaT,37.540733,126.98975
restaurants,3436616,4.153846153846153,힐사이드 펍 & 비스트로,Hillside Pub & Bistro,37.534459999999996,126.98903
restaurants,3438893,4.071428571428571,아구랑 꽃게랑,Agurang Kkokerang,37.56081,127.00516
restaurants,3438901,4.05,CJ 푸드월드,CJ Food World,37.563686,127.00326499999998
restaurants,3457008,3.5737704918032787,자코비 버거,Jacoby's Burgers,37.541786,126.9873
restaurants,3457929,4.128329297820823,이삭토스트 명동점,Isaac Toast Myeongdong,37.56068,126.983406
restaurants,3460611,3.6315789473684217,아웃백 교대점,Outback Seoul National University of Education Store,37.4949,127.01858999999999
restaurants,3460729,3.736842105263158,토마틸로 그릴 이태원점,Tomatillo Grill Itaewon Store,37.535114,126.99457
restaurants,3462970,4.014084507042254,샘라이언스 스포츠 바 & 그릴,Sam Ryan's Sports Bar & Grill,37.534973,126.99261000000001
restaurants,3470009,4.2,꽁시면관 명동본점,Kkongsi Myeongwan Myeongdong,37.5667,126.97809
restaurants,3472780,4.173913043478262,살롱 드 떼,Salon De The,37.565365,126.98116999999999
restaurants,3472919,3.5,리틀 인디아 서울,Little India Seoul,37.533257,126.9967
restaurants,3497984,4.833333333333333,헨델과 그레텔 여의도점,Handel and Gretel Yeouido Store,37.525665000000004,126.91861999999999
restaurants,3497985,4.090909090909091,코나빈스 압구정점,Kona Beans Apgujeong Store,37.527912,127.03556
restaurants,3497987,4.0,신성,Sinseong,37.520179999999996,126.92648
restaurants,3497988,3.2,엔제리너스 커피 신논현역점,Angel-in-us SinNonhyeon Store,37.504265000000004,127.02462
restaurants,3513662,4.62962962962963,팬케익 오리지널 스토리,Pancake Original Story,37.533646000000005,127.008026
restaurants,3531827,4.0,고기주는 냉면집 명동1호점,GogiJuneun NaengmyeonJip Myeongdong 1,37.561703,126.98392
restaurants,3543818,3.933333333333333,매드포갈릭 강남점,Mad for Garlic Gangnam Store,37.499283,127.03232
restaurants,3568808,2.4285714285714284,오다리집 명동,Odarijip Myeongdong,37.561382,126.98323
restaurants,3571296,4.5,남산골 산채집,Namsangol SanChaeJip,37.556740000000005,126.98515
restaurants,3572888,4.109489051094891,부자피자,Pizzeria d' Buzza,37.5372,127.00001499999999
restaurants,3585162,4.833333333333333,무라사키,Murasaki,37.523033,127.03497
restaurants,3585164,4.333333333333333,모던밥상,Modern Babsang,37.520203,127.02323999999999
restaurants,3585169,4.61904761904762,두가헌,Dugahun,37.577156,126.97962
restaurants,3588984,4.0,델쿠마라,Del Kumara,37.524165999999994,126.87033999999998
restaurants,3599217,3.6875,일 비노 로소,Il Vino Rosso,37.550373,126.982956
restaurants,3599764,4.0,히이로 건대점,Hiiro Geondae Store,37.545296,127.07587
restaurants,3600500,4.0,대장금,DaeJangGeum,37.50936,127.05565
restaurants,3600756,4.274336283185842,교촌치킨 홍대점,Kyochon Chicken Hongdae Store,37.551956,126.92285
restaurants,3605789,4.4827586206896575,로비라운지바,Lobby Lounge Bar,37.508617,126.88878000000001
restaurants,3605822,4.3,피트 카페,Fit Cafe,37.508617,126.88878000000001
restaurants,3612094,3.7647058823529416,흑돈가 신논현점,Heukdonga Sinnonhyeon,37.50744,127.02259
restaurants,3612112,4.166666666666667,철철 복집,Cheolcheol Bokjip,37.567245,126.98137
restaurants,3612216,5.0,바디 쉐프,Body Chef,37.502003,127.0372
restaurants,3616557,4.2,필경재,Philkyungjae,37.48493,127.095184
restaurants,3616559,5.0,한뫼촌,HanMoeChon,37.57897,126.98557
restaurants,3616561,4.2222222222222205,곰바위,Gombawie,37.51021,127.05526
restaurants,3616586,4.416216216216216,더 파크뷰,The Park View,37.556103,127.00493
restaurants,3616594,3.810810810810811,육쌈냉면 홍대점,Yookssam Naengmyeon Hongdae Store,37.55188,126.92148
restaurants,3616699,3.3846153846153846,팔자막창 건대점,Palja Makchang Geondae,37.541767,127.067154
restaurants,3627413,3.882352941176471,꼬마김밥,Kkoma Kimbap,37.569717,126.99853999999999
restaurants,3627423,3.8813559322033897,순희네 빈대떡,Sunine Bindaetteok,37.57051,127.0008
restaurants,3627431,4.2,르알래스카,Le ALASKA Apgujeong,37.52406,127.03764
restaurants,3627436,3.888888888888889,더 큰집,Deokeunjip,37.51905,127.02798
restaurants,3627448,4.0588235294117645,대성 닭한마리,Daeseong Dakhanmari,37.56333,126.99139
restaurants,3627455,4.052631578947368,My Chelsea,My Chelsea,37.535022999999995,126.993
restaurants,3629484,4.166666666666667,복정식당,Bokjeong Sikdang,37.5821,126.98183
restaurants,3629496,4.714285714285714,애류헌,Ae Ryu Heon,37.52544,127.04553
restaurants,3636658,4.121951219512195,석파랑,Seokparang,37.599403,126.958496
restaurants,3636677,3.2888888888888888,모글,Moghul,37.535027,126.99333
restaurants,3642763,3.75,스타 쉐프,Star Chef,37.485207,127.04486999999999
restaurants,3650175,5.0,문향,Moon Hyang,37.579308000000005,126.98313999999999
restaurants,3667465,4.304347826086956,9 티모,9 Timo,37.535090000000004,126.99428999999999
restaurants,3682371,4.337748344370861,브릭 오븐 뉴욕 피자,Brick Oven New York Pizzeria,37.5031,127.02783000000001
restaurants,3682403,4.6,하루연가,Haruyeonga,37.571827,127.00795
restaurants,3687354,3.4,고인돌,Goindol,37.569359999999996,126.98476000000001
restaurants,3687456,4.066666666666666,백세주 마을 종각점,Baekseju Maeul Jonggak Store,37.569359999999996,126.9836
restaurants,3694381,4.115384615384615,코너스톤,Cornerstone Cucina Italiana,37.508568,127.06413
restaurants,3694822,4.125,부온 사뽀레 뽀모도로 인사동점,Buon Sapore Pomodoro Insadong Store,37.57336,126.985825
restaurants,3727488,4.289473684210527,도스 타코스 종로점,Dos Tacos Jongno Store,37.568874,126.98471
restaurants,3784036,3.6,GN 레스토랑,GN Restaurant,37.506428,127.0298
restaurants,3855993,4.4324324324324325,연타발 강남역점,Yeontabal Gangnam Station,37.498158000000004,127.02633999999999
restaurants,3859733,4.27906976744186,북창동 순두부,Bukchangdong Sundunbu,37.54115,126.94956
restaurants,3901189,4.0,명동 부산집,Myeongdong Busanjip,37.563109999999995,126.98483999999999
restaurants,3901506,4.288235294117647,바우하우스,Bau House,37.550476,126.9158
restaurants,3901574,4.1875,반타이,Bann Thai,37.57725,126.98643999999999
restaurants,3902014,4.138888888888889,포탈라 레스토랑 종로점,Potala Restaurant Jongno Store,37.56838,126.98866000000001
restaurants,3922433,4.3,느티나무 설렁탕,Neutinamu Seolleongtang,37.566704,127.01284
restaurants,3922438,3.8625,아리랑,Arirang,37.564144,126.98058
restaurants,3922586,5.0,산봉 화로구이 신촌점,Sanbong Hwarogui Sinchon Store,37.55834,126.93586
restaurants,3922602,4.181818181818182,정대포,Jeongdaepo,37.541958,126.95114
restaurants,3922605,4.037735849056603,큰기와집,Keunkiwajip,37.579876,126.98161999999999
restaurants,3922609,4.5,철길 왕 갈비살,Cheolkil WangGalbissal,37.55472,126.93177
restaurants,3922616,3.8536585365853657,돈돈숯불갈비,Dondon Sutbul Galbi,37.561676,126.987076
restaurants,3922618,4.0,초마,Choma,37.550922,126.92326000000001
restaurants,3922647,4.142857142857143,남산설렁탕,Namsan Seolleongtang,37.556705,126.98491000000001
restaurants,3922685,4.0,명동 꼬불이칼국수,Myeongdong Kkoburi Kalguksu,37.5619,126.98528
restaurants,3922745,4.054545454545455,딘타이펑 롯데몰 김포공항점,Din Tai Fung Gimpo Airport Lotte Mall,37.563725,126.80408
restaurants,3922841,4.448275862068964,오우가,Ouga,37.561707,126.987274
restaurants,3922879,4.461538461538462,혜성 칼국수,Hyeseong Kalguksu,37.583405,127.04898
restaurants,3922902,3.75,함경면옥,Hamgyeong Myeonok,37.578495000000004,127.0332
restaurants,3922956,3.84,자매집,Jamaejip,37.570652,127.00001
restaurants,3923054,4.4,마실 참숯 생고기집,Masil Chamsut Saenggogijjip,37.606724,127.03379
restaurants,3923144,3.75,오복 닭한마리,Obok Dakhanmari,37.612770000000005,127.03058999999999
restaurants,3923364,4.526315789473684,평래옥,PyeongRaeOk,37.564693,126.990326
restaurants,3923377,4.5,마포 부자 갈매기,Mapo Buja Galmaegi,37.541702,126.9508
restaurants,3923386,4.333333333333333,충무칼국수,Chungmu Kalguksu,37.562866,126.99798999999999
restaurants,3923416,3.9,오리엔탈 스푼 압구정 본점,Oriental Spoon Apgujung Store,37.524815000000004,127.0368
restaurants,3923472,4.0,도스 타코스 홍대 와이즈파크점,Dos Tacos Hongdae Yzpark Store,37.55724,126.92491000000001
restaurants,3923509,4.307692307692308,오세계향,Osegyehyang,37.57468,126.985146
restaurants,3933317,4.0,베니건스 코엑점,Bennigans COEX,37.52171,127.06306000000001
restaurants,3933440,4.0,죽이야기 삼성동점,JukStory Samsungdong Store,37.521164,127.05413999999999
restaurants,3933452,4.0,김가네 정동점,Gimgane Jeongdong,37.56797,126.96932
restaurants,3933460,5.0,죽이야기 평창동점,JukStory Pyungchangdong Store,37.619125,126.96831
restaurants,3933465,4.0,김가네 창동아이파크점,Gimgane Changdong I park Store,37.67295,127.04247
restaurants,3933506,3.0,죽이야기 신촌역점,JukStory Shinchonyeok Store,37.571247,126.93466000000001
restaurants,3933541,4.0,죽이야기 건국대병원점,JukStory Geongookdae Byungwon Store,37.554375,127.06924
restaurants,3933545,4.0,김가네 가산롯데IT점,Gimgane Gasan Lotte IT Store,37.48957,126.87973000000001
restaurants,3933581,4.0,김가네 반포1호점,Gimgane Banpo 1st Store,37.515716999999995,127.00951
restaurants,3933585,4.0,죽이야기 상계백병원점,JukStory Sanggyebaek Byungwon Store,37.663709999999995,127.06168999999998
restaurants,3933656,4.5,김가네 성신여대점,Gimgane Seongshin Yeodae Store,37.604440000000004,127.01912
restaurants,3933687,4.0,김가네 로데오점,Gimgane Rodeo,37.539677000000005,127.03697
restaurants,3933802,4.0,김가네 강일점,Gimgane Gang-il Store,37.579956,127.17499
restaurants,3933807,3.5,김가네 서강대점,Gimgane Seokgandae Store,37.564716,126.94153
restaurants,3933810,4.0,김가네 문래하이테크점,Gimgane Munrae High Tech Store,37.528786,126.89827
restaurants,3933844,3.5,김가네 독산역점,Gimgane Doksanyeok Store,37.477585,126.88591000000001
restaurants,3933880,2.5,카페베네 을지병원점,Caffe Bene Euilji Hospital Store,37.63633,127.06971000000001
restaurants,3933887,2.5,카페베네 노원교보점,Caffe Bene Nowon Kyobo Store,37.65473,127.06001
restaurants,3933995,4.0,카페베네 충무로역점,Caffe Bene Chungmu-ro Station Store,37.561104,126.99326
restaurants,3934029,4.0,카페베네 한국외국어대학교 서울캠퍼스,Caffe Bene Hankuk University of Foreign Studies Seoul campus,37.596886,127.05856000000001
restaurants,3934090,4.333333333333333,카페베네 신림고시촌점,Caffe Bene Shinlim Gosi Villiage Store,37.48735,126.92703
restaurants,3934094,4.0,카페베네 세종대 학생회관점,Caffe Bene Sejong University Student Union Building Store,37.5518,127.07363000000001
restaurants,3934138,4.0,김가네 구로디지털단지점,Gimgane Guro Digital Danji Store,37.50101,126.89827
restaurants,3934168,4.5,카페베네 건대역사거리점,Caffe Bene Gundae History Road Intersection Store,37.539658,127.07013
restaurants,3934286,3.6,카페베네 삼청동길점,Caffe Bene Samcheong-dong road Store,37.581520000000005,126.98123000000001
restaurants,3934297,3.9090909090909087,카페베네 여의도HP본사점,Caffe Bene Yeoeuido HP head office Store,37.523357,126.92307
restaurants,3934359,4.0,카페베네 구로디지털역점,Caffe Bene Guro Digital Station Store,37.4831,126.90118000000001
restaurants,3934378,4.333333333333333,카페베네 신천역사거리점,Caffe Bene Shinchun Station Intersection Store,37.50758,127.09052
restaurants,3934473,4.5,카페베네 홍은사거리점,Caffe Bene Hongen Intersection Store,37.5916,126.94301000000002
restaurants,3934523,3.0,카페베네 경복궁역점,Caffe Bene Gyeongbokgoong Station Store,37.576126,126.97283
restaurants,3934534,5.0,카페베네 여의도국제금융센터,Caffe Bene Yeoeuido International Finace Center,37.524937,126.92528999999999
restaurants,3934566,3.1538461538461537,카페베네 신도림테크노마트점,Caffe Bene Shindorim Techno Park Store,37.508057,126.89066000000001
restaurants,3934614,4.0,카페베네 신림역점,Caffe Bene Shinlim Station Store,37.483703999999996,126.92863999999999
restaurants,3937204,3.0,김가네 우면점,Gimgane Wumyun Store,37.47077,127.03491000000001
restaurants,3937329,4.0,카페베네 압구정로데오점,Caffe Bene Apgujeong Rodeo Store,37.526714,127.03798
restaurants,3937350,3.7142857142857135,카페베네 압구정갤러리아점,Caffe Bene Apgujeong Galleria Store,37.52746,127.04031
restaurants,3937467,4.0,카페베네 선정릉역점,Caffe Bene Seonjeongneung Station Store,37.509609999999995,127.04266000000001
restaurants,3938375,3.888888888888889,T.G.I.F. 메세나폴리스점,T.G.I.F. Mecenatpolis Store,37.558052,126.9217
restaurants,3938376,2.8571428571428568,T.G.I.F. 김포공항점,T.G.I.F. Kimpo Airport Store,37.575058,126.80556999999999
restaurants,3938378,2.142857142857143,T.G.I.F. 아이파크몰점,T.G.I.F. I-Park Mall Store,37.5424,126.96213
restaurants,3938379,4.2222222222222205,T.G.I.F. 강남시티점,T.G.I.F. Gangnam City Store,37.51517,127.0253
restaurants,3938388,1.0,T.G.I.F. 청량리역점,T.G.I.F. Cheongnyangni Station Store,37.594646000000004,127.04865
restaurants,3938392,4.25,T.G.I.F. 건대스타시티점,T.G.I.F. Konkuk University Star City Store,37.55492,127.07268
restaurants,3938396,3.0,T.G.I.F. 홍대역점,T.G.I.F. Hongik University Station Store,37.567440000000005,126.9223
restaurants,3938413,4.0,아웃백 도곡점,Outback Dogok Store,37.50809,127.05826
restaurants,3938419,3.8181818181818175,아웃백 노원점,Outback Nowon Store,37.659634000000004,127.0598
restaurants,3938478,4.0,아웃백 종로점,Outback Jongro Store,37.583220000000004,126.98478999999999
restaurants,3938485,3.652173913043478,아웃백 코엑스점,Outback COEX Store,37.522797,127.06031999999999
restaurants,3938849,4.0,롯데리아 방학,Lotteria Banghak Store,37.66209,127.03278
restaurants,3938870,3.6666666666666665,롯데리아 강남우성사거리,Lotteria Gangnam Useong Sageori Store,37.507545,127.02942
restaurants,3938889,4.5,롯데리아 가산디지털역,Lotteria Gasan Digital Station Store,37.49665,126.88521999999999
restaurants,3938896,2.5,롯데리아 행복한세상,Lotteria Haengbokhansesang Store,37.53859,126.87363
restaurants,3938898,3.0,롯데리아 고대하나스퀘어,Lotteria Korea University Hana Square Store,37.600629999999995,127.02736000000002
restaurants,3938917,2.0,롯데리아 대방역,Lotteria Daebang Station Store,37.512978000000004,126.92403999999999
restaurants,3938938,4.0,롯데리아 길음뉴타운점,Lotteria Gileum New Town-branch Store,37.604915999999996,127.02228999999998
restaurants,3938943,3.8,롯데리아 홈플러스월곡,Lotteria Home Plus Wolgok Store,37.613686,127.04178
restaurants,3938961,4.25,롯데리아 용산역사ST,Lotteria Yongsan Station Store,37.543488,126.9635
restaurants,3938964,4.25,롯데리아 청량리역사점,Lotteria Cheongnyangni Station,37.580315,127.0473
restaurants,3938967,3.9166666666666665,롯데리아 롯데에비뉴엘,Lotteria Lotte Avenuel Store,37.564040000000006,126.98173
restaurants,3938988,4.333333333333333,롯데리아 홈플러스강서,Lotteria Home Plus Gangseo Store,37.55862,126.854576
restaurants,3938990,3.25,롯데리아 홈플러스중계점,Lotteria Home Plus Junggye,37.63964,127.0687
restaurants,3938997,3.571428571428572,롯데리아 남부터미널,Lotteria Nambu Terminal Store,37.48472,127.01598
restaurants,3939011,4.0,던킨 도너츠 파이낸스,Dunkin Donut Finance Store,37.563076,126.97656
restaurants,3939033,3.1666666666666665,롯데리아 청량리,Lotteria Cheongryangri Store,37.595737,127.04865
restaurants,3939053,3.5,롯데리아 신도림역점,Lotteria Sindorim Station,37.523888,126.88797
restaurants,3939060,3.0,롯데리아 롯데노원,Lotteria Lotte Nowon Store,37.6596,127.06851
restaurants,3939078,3.5,롯데리아,Lotteria,37.589005,127.08708999999999
restaurants,3939128,3.0,롯데리아 길동점,Lotteria Gildong Store,37.533245,127.12937
restaurants,3939295,4.0,던킨 도너츠 용산역2호,Dunkin Donut Yongsan Station Second Store,37.528853999999995,126.96404
restaurants,3939349,3.6666666666666665,롯데리아 종각역점,Lotteria Jonggak Station,37.56994,126.9849
restaurants,3943508,3.7777777777777777,아웃백 메트로점,Outback Steakhouse Myeongdong Metro,37.56508,126.98355
restaurants,3943709,4.0,아웃백 회현점,Outback Steakhouse Hoehyeon,37.57397,126.98273
restaurants,3944202,3.5,롯데리아 동대문역사문화공원역,Lotteria Dongdaemun History & Culture Park Station,37.566338,127.00645
restaurants,3944241,3.9459459459459465,롯데리아 롯데마트서울역사점,Lotteria Lotte Mart Seoul Station,37.557407,126.9695
restaurants,3944253,4.333333333333333,롯데리아 새나라점,Lotteria Saenara Store,37.511295000000004,127.0978
restaurants,3957218,4.6,진 샤브샤브,Jin Shabushabu,37.56175,126.98754
restaurants,3957237,4.1,까사 안토니오,CasAntonio,37.534893,126.9954
restaurants,3957242,4.363636363636363,고려 삼계탕 세종로점,Korea Samgyetang Sejongno Store,37.571457,126.97606999999999
restaurants,3957603,3.0,마산옥,Masanok,37.51724,127.02023
restaurants,3957610,3.6246851385390433,유가네 닭갈비 명동1호점,Yoogane Myeongdong 1st Store,37.563206,126.98532
restaurants,3957619,3.1,두레,Doore,37.573338,126.98662
restaurants,3957621,4.542857142857144,차이야기,Cha Iyagi,37.574207,126.98558999999999
restaurants,3957673,4.0,프로 간장 게장 삼성점,Pro Soy Crab Samsung,37.510909999999996,127.05643500000001
restaurants,3957676,4.583333333333333,다채 동대문점,Dachai Dongdaemun Store,37.56901,127.01346000000001
restaurants,4029054,4.441176470588236,뱀부하우스,Bamboo House,37.50717,127.03675
restaurants,4029171,4.4,비어캐빈 보라매점,Beer Cabin Boramae,37.491558000000005,126.91663999999999
restaurants,4029199,5.0,비어캐빈 시흥은행나무점,Beer Cabin Shiheung Eunhaengnamu,37.449287,126.91046000000001
restaurants,4029241,4.5,BHC 쌍문선덕점,BHC Ssangmun Seondeok,37.65733,127.02821000000002
restaurants,4029267,4.4,보드람치킨 오목교점,Bodram Chicken Omokgyo,37.525463,126.87507
restaurants,4029280,4.454545454545454,본죽 인사동점,Bonjuk Insadong,37.574738,126.98405
restaurants,4029316,4.0,버거킹 청담점,Burger King Cheongdam,37.524258,127.03969
restaurants,4029318,3.739130434782609,버거킹 노량진점,Burger King Noryangjin,37.514065,126.94481999999999
restaurants,4029327,3.931034482758621,버거킹 신촌점,Burger King Sinchon,37.555603000000005,126.93728999999999
restaurants,4029334,4.4,부산갈매기,Busan Galmaegi,37.562057,126.97832
restaurants,4029335,4.0,별궁식당,Byeolgung Sikdang,37.577232,126.98358999999999
restaurants,4029389,4.5,처갓집양념통닭 신천점,Cheogatjip Yangnyeom Tongdak Shincheon,37.51024,127.08503
restaurants,4029427,4.25,청진식당,Chungjin Restaurant,37.570473,126.98572
restaurants,4029438,5.0,청계산황구 양재본점,Cheonggyesan Hwanggu Yangjae,37.46705,127.03513999999998
restaurants,4029447,3.625,치보치마,Chibochima,37.552425,126.98716999999999
restaurants,4029472,3.810810810810811,충무김밥,Chungmu Gimbap,37.56292,126.98548000000001
restaurants,4029557,4.0,들풀,Deulpul,37.566547,126.97797
restaurants,4029570,4.294117647058823,된장예술과술,Doenjang Art and Alcohol,37.569140000000004,126.98553000000001
restaurants,4029712,4.0,둘둘치킨 방이점,Dul Dul Chicken Bangi,37.51535,127.1079
restaurants,4029736,3.9090909090909087,엘쁠라또 광화문점,El Plato Gwanghwamun,37.568253000000006,126.97811000000002
restaurants,4029767,4.2,은호식당,Eunho Sikdang,37.558975,126.97701
restaurants,4029827,3.0,가르텐비어 신림순대타운점,Garten Beer Sillim Sundae Town,37.483672999999996,126.92883
restaurants,4029874,5.0,김민영왕호떡 본점,Gimminyeong Wanghotteok,37.542667,126.97198
restaurants,4029892,4.0,곰의집,Bear House,37.595974,127.00628
restaurants,4029992,4.0,하회마을,Hahoemaeul,37.555393,126.92396000000001
restaurants,4030078,3.820224719101124,하드록카페서울,Hard Rock Cafe Seoul,37.513690000000004,127.10411
restaurants,4030106,4.0,호아빈 충무로점,Hoabin Chungmuro,37.563427000000004,126.9911
restaurants,4030128,4.4,홍보석,Hongboseok,37.5199,126.92454
restaurants,4030135,3.5517241379310347,후터스 강남점,Hooters Gangnam,37.504944,127.02613999999998
restaurants,4030210,4.27777777777778,일일향,Ililhyang,37.52361,127.03028
restaurants,4030228,4.333333333333333,아이오유,Iou,37.53492,126.94573999999999
restaurants,4030235,3.8333333333333335,갈비명가이상 길음신관,Galbi Myeongga Isang Gireum,37.60388,127.02569
restaurants,4030242,4.333333333333333,잉카바베큐 강남점,Inka Barbecue,37.463207000000004,127.10728
restaurants,4030275,4.5,째즈스토리,Jazz Story,37.580284000000006,127.00381499999999
restaurants,4030345,3.333333333333333,종로빈대떡 본점,Jongno Bindaetteok,37.573135,126.99155
restaurants,4030406,4.0,중원,Jungwon,37.55712,126.97737
restaurants,4030421,4.0,KFC 개롱역점,KFC Gaerongyeok,37.495552,127.12156999999999
restaurants,4030430,4.2,KFC 망우동점,KFC Mangudong,37.598984,127.09758000000001
restaurants,4030433,5.0,KFC 일원점,KFC Ilwon,37.489468,127.07468
restaurants,4030459,4.516666666666667,교촌치킨 동대문1호점,Kyochon Chicken Dongdaemun 1,37.571445000000004,127.01066000000002
restaurants,4030465,5.0,교촌치킨,Kyochon Chicken,37.555009999999996,126.98625
restaurants,4030541,4.166666666666667,맛나곱창,Manna Gopchang,37.568493,127.0246
restaurants,4030544,5.0,마복림할머니 막내아들네,Mabonglim Halmeoni Mangnae Adeulne,37.561896999999995,127.01478
restaurants,4030578,4.0,맥도날드 파리공원점,McDonald's Paris Park,37.53718,126.8811
restaurants,4030725,3.333333333333333,미스터피자 정동점,Mr. Pizza Jeongdong,37.56831,126.96975
restaurants,4030741,4.5,미스터피자 여의도점,Mr. Pizza Yeouido,37.520477,126.92401000000001
restaurants,4030766,3.7,나마스테 청담점,Namaste Cheongdam,37.523846,127.0226
restaurants,4030771,4.0,내원,Naewon,37.52013,126.92638999999998
restaurants,4030794,5.0,네네치킨 불광점,Nene Chicken Bulgwang,37.623657,126.92976000000002
restaurants,4030810,4.0,네네치킨 쌍문점,Nene Chicken Ssangmun,37.646496,127.02526999999999
restaurants,4030880,4.5625,오가와,Ogawa,37.571846,126.97448
restaurants,4030883,4.666666666666667,온달,Ondal,37.555126,127.11096
restaurants,4031087,4.0,포베이 역삼직영점,Pho Bay Yeoksam,37.504032,127.044
restaurants,4031099,4.0,포몬스 올림픽점,Phomons Olympic,37.515785,127.12318
restaurants,4031161,4.0,파파이스 종로점,Popeyes Jongno,37.570183,126.98566000000001
restaurants,4031184,5.0,뿌자,Pooja,37.576035,127.01183999999999
restaurants,4031196,4.5,레드브릭,Red Brick,37.533634,126.99213999999999
restaurants,4031198,4.037037037037037,평양면옥,Pyeongyang Myeonok,37.563179999999996,127.00671000000001
restaurants,4031235,4.526315789473684,삼각지 원 대구탕,Samgakji Won Daegutang,37.534653000000006,126.97421000000001
restaurants,4031262,4.125,잠실 시크릿가든,Jamsil Secret Garden,37.51938,127.07638999999999
restaurants,4031297,3.625,세븐스프링스 역삼점,Seven Springs Yeoksam,37.49897,127.03236000000001
restaurants,4031298,3.0,신포우리만두 외대점,Shinpo Uri Mandu Oedae,37.60324,127.06508999999998
restaurants,4031304,4.157894736842104,신포우리만두 인사점,Sinpo Uri Mandu Insa,37.5723,126.98678000000001
restaurants,4031328,4.111111111111111,예 신라삼계탕,Ye Silla Samgyetang,37.560127,126.97188999999999
restaurants,4031329,4.0,신선설농탕 신촌점,Sinseon Seolnongtang Sinchon,37.55859,126.93915
restaurants,4031340,4.333333333333333,신승관,Sinseunggwan,37.562386,126.97785
restaurants,4031345,4.2,신선설농탕 방이점,Sinseon Seolnongtang Bangi,37.513317,127.10302
restaurants,4031358,3.717948717948718,송죽장,Songjukjang,37.518032,126.90541999999999
restaurants,4031367,4.0,스패뉴,Spannew,37.568207,126.97941000000002
restaurants,4031429,4.666666666666667,틈새,Teumsae,37.562979999999996,126.98595
restaurants,4031451,4.142857142857143,도쿄사이카보,Tokyo Saikabo,37.525692,127.05243999999999
restaurants,4031466,4.714285714285714,톰스피자,Toms Pizza,37.605007,126.96543999999999
restaurants,4031585,4.0,투다리 수색본점,Tudari Susaek Main,37.58065,126.89991
restaurants,4031616,4.32,을지면옥,Uljimyeonok,37.56766,126.99266999999999
restaurants,4031765,4.095238095238095,유가네닭갈비 홍대1호점,Yoogane Dalkgalbi Hongdae 1-ho,37.554665,126.92286000000001
restaurants,4031819,4.230769230769232,사보텐 무교점,Saboten Mugyo,37.56712,126.97877
restaurants,4031884,3.75,조선옥,Joseonok,37.56674,126.9935
restaurants,4031895,4.8,대우식당,Daeu Sikdang,37.502716,127.03513000000001
restaurants,4031920,3.4,고암식당,Goam Sikdang,37.534958,126.99496
restaurants,4031934,4.0,곰국시집,Gomguk Sijip,37.55005,126.99707
restaurants,4031987,5.0,Yuhyangso,Yuhyangso,37.548794,127.0572
restaurants,4032020,4.5,약초마을 본점,Yakcho Maeul Main,37.512985,126.92908999999999
restaurants,4032028,4.296296296296297,당산원조곱창,Dangsan Wonjo Gopchang,37.53468,126.89968
restaurants,4032029,4.307692307692308,이화안동찜닭,Ewha Andong Jjimdak,37.558803999999995,126.94537
restaurants,4032038,4.333333333333333,몽중헌,Mongjungheon,37.526973999999996,127.046
restaurants,4032144,5.0,문턱없는밥집,Bium Nanum (Munteok Eopneun Babjip),37.554559999999995,126.91461000000001
restaurants,4032150,3.8947368421052633,대성갈비,Daeseong Galbi,37.547142,127.04411999999999
restaurants,4032177,4.454545454545454,필동면옥,Pildong Myeonok,37.560326,126.99703999999998
restaurants,4032186,4.333333333333333,쌀레 에 뻬뻬,Sale E Pepe,37.58182,127.00352
restaurants,4032211,3.8571428571428568,소선재,Soseonjae,37.585503,126.98178
restaurants,4032254,4.866666666666666,와인라인,Wineline,37.502697,127.05906999999999
restaurants,4032260,3.863636363636364,춘천집닭갈비,Chuncheonjip Dakgalbi,37.556705,126.93606000000001
restaurants,4032322,4.0,우모촌,Umochon,37.56392,126.98206
restaurants,4032335,5.0,뜨락,Tteurak,37.524254,127.055595
restaurants,4032356,3.75,오장동함흥냉면,Ojangdong Hamheung Naengmyeon,37.564228,126.99987
restaurants,4032382,4.0,Norang Jeogori,Norang Jeogori,37.49828,127.02514
restaurants,4032387,4.2,동회루,Donghoeru,37.561134,126.99411
restaurants,4032449,4.109756097560975,우래옥 주교점,Woo Lae Oak Jugyo,37.5681,126.99864
restaurants,4032467,4.5373134328358224,Brasserie,Brasserie,37.51323,127.057175
restaurants,4032490,4.230769230769232,만수옥,Mansuok,37.577126,126.98563999999999
restaurants,4032526,4.0,봉산집,Bongsanjip,37.53439,126.97498
restaurants,4032527,3.9,대장장이화덕피자,Daejangjangi Hwadeok Pizza,37.581340000000004,126.98472
restaurants,4032530,4.384615384615385,반룡산,Banryongsan,37.50466,127.05592
restaurants,4032551,4.404494382022471,대도식당 - 왕십리본점,Daedo Sikdang - Wangsiblibon,37.56727,127.03062
restaurants,4032564,3.333333333333333,국수가,Guksuga,37.580803,127.00433000000001
restaurants,4032601,4.5555555555555545,오무라안,Omuraan,37.496105,127.03357
restaurants,4032620,3.8181818181818175,계열사,Gyeyeolsa,37.59284,126.96561000000001
restaurants,4032625,4.1,스바루,Subaru,37.4955,126.98924
restaurants,4032644,3.586206896551724,왕비집 명동2호점,Wangbijib Myeongdong 2nd Store,37.56454,126.98489
restaurants,4032694,4.5,개성집,Gaeseongjip,37.579403000000006,127.02802
restaurants,4032707,3.8333333333333335,교대곱창,Gyodae Gopchang,37.488636,127.01423999999999
restaurants,4032723,4.3,대가방,Daegabang,37.521156,127.03854
restaurants,4032747,4.5,이원,YI YUAN,37.547959999999996,126.8195
restaurants,4032754,5.0,전주집,Jeonju Jib,37.570206,127.00633
restaurants,4032813,3.8333333333333335,바나나그릴,Banana Grill,37.533817,127.00809
restaurants,4032866,4.571428571428571,논현 삼계탕,Nonhyeon Samgyetang,37.5077,127.11003999999998
restaurants,4032868,3.25,문화옥,Munhwaok,37.56808,126.99843999999999
restaurants,4032869,4.777777777777779,비꼴로,Vicolo,37.558907,126.94417
restaurants,4032876,4.166666666666667,송죽,Songjuk,37.562065000000004,126.99206000000001
restaurants,4032916,4.333333333333333,을밀대,Eulmildae,37.547527,126.94543
restaurants,4032934,3.8571428571428568,와세다야에프앤비,Wasedaya F&B,37.52556,127.05131999999999
restaurants,4033003,4.0,신창면옥,Shinchang Myeonok,37.564438,126.99982
restaurants,4033007,4.404255319148937,강남교자,Gangnam Gyoza,37.50141,127.02431999999999
restaurants,4033013,4.2,Asian Live,Asian Live,37.513474,127.05745
restaurants,4033018,4.25,충무로돼지갈비,Chungmuro Dwaejigalbi,37.56265,126.99263
restaurants,4033145,4.75,달새는달만생각한다,The Moonbird Does Think Only of the Moon,37.57461,126.98517
restaurants,4033287,3.8461538461538463,스카이 라운지,Sky Lounge,37.51367,127.05751000000001
restaurants,4033307,4.5,리샨,Lisian,37.525635,126.91861999999999
restaurants,4033335,4.428571428571429,칠갑산,Chilgapsan,37.571213,126.97997
restaurants,4033365,4.171428571428572,곰국시집,Gomgukshijip,37.568084999999996,126.97944
restaurants,4033433,4.133333333333334,동경우동,Donggyeong Udon,37.565284999999996,126.99271
restaurants,4033459,4.333333333333333,토기장이,Togijangi,37.53157,126.87596
restaurants,4033485,4.25925925925926,용수산 비원점,Yongsusan Biwon,37.57926,126.98896
restaurants,4033551,4.0,엘디에스,Eldies,37.53003,126.9262
restaurants,4033556,4.0588235294117645,명동돈가스,Myeongdong Donkatsu,37.563854,126.98591
restaurants,4033582,5.0,치맛살,Chimatsal,37.5561,127.01082
restaurants,4033595,4.111111111111111,춘천냉면,Chuncheon Naengmyeon,37.582134,127.04393
restaurants,4033614,4.5,마오 양재점,Mao Yangjae,37.476845000000004,127.04026999999999
restaurants,4033619,4.0,오발탄 역삼점,Obaltan Yeoksam,37.49946,127.03881000000001
restaurants,4033646,4.2727272727272725,목포집,Mokpojip,37.51733,127.02051999999999
restaurants,4033672,5.0,파낙스,Panacs,37.51993,126.92908999999999
restaurants,4033686,4.0,고바우소곱창,Gobau Sogobchang,37.65305,127.05819
restaurants,4033695,4.3,I Love Sindangdong,I Love Sindangdong,37.563065,127.0151
restaurants,4033697,4.684210526315789,그랑씨엘 도산점,Grand Ciel Dosan,37.523365000000005,127.03583
restaurants,4033721,4.0,천지식당,Cheonji Sikdang,37.562073,126.98182
restaurants,4033775,4.8,신동양반점,Sindong Yangbanjeom,37.52135,126.92498
restaurants,4033778,4.842105263157895,뿌자,Pooja Restaurant,37.566837,127.00708999999999
restaurants,4033792,3.7142857142857135,아지오 인사점,Ajio Insa,37.573673,126.98341
restaurants,4033804,4.3243243243243255,황소고집,Hwangsogojip,37.568577000000005,126.98603
restaurants,4033846,4.4375,플로라,Flora,37.578926,126.98225
restaurants,4033856,5.0,명원,Myeongwon,37.562584,126.98593999999999
restaurants,4033874,4.142857142857143,나무가있는집,Namuga Itneunjip,37.571354,126.97203
restaurants,4033905,4.5,한성 칼국수,Hanseong Kalguksu,37.520786,127.03371000000001
restaurants,4033957,4.6,수빈,Subin,37.571964,126.93422
restaurants,4033967,3.571428571428572,동아냉면,Donga Naengmyeon,37.53085,126.99662
restaurants,4034010,4.0,행화촌,Haenghwachon,37.56207,126.9818
restaurants,4034045,4.25,퀸스파크 청담점,Queens Park Cheongdam,37.52585,127.04166000000001
restaurants,4034133,4.6,차마시는뜰,Chamasineun Ddeul,37.58212,126.98225
restaurants,4034146,5.0,상파울루,Sao Paulo,37.583088000000004,127.00131
restaurants,4034159,3.6,야래향,Yaraehyang,37.52087,126.97466999999999
restaurants,4034165,4.0,향나무세그루,Hyangnamu Segeuru,37.584187,126.98213
restaurants,4034173,4.25,강서면옥 압구정점,Gangseomyeonok Apgujeong,37.525555,127.03506000000002
restaurants,4034225,4.5,라미띠에,La'amitie,37.522755,127.03262
restaurants,4034242,3.925925925925928,스모키살룬,Smokey Salon,37.53498,126.994804
restaurants,4034264,4.6,조우,Jou,37.578804,126.97103
restaurants,4034349,3.875,정동국시,Jeongdong Guksi,37.567820000000005,126.9699
restaurants,4034359,4.166666666666667,더블린,Double Lin,37.5021,127.02618000000001
restaurants,4034387,4.238095238095238,향미,Hyangmi,37.56282,126.92513000000001
restaurants,4034435,4.0,북악정,Bukakjeong,37.611286,126.97776
restaurants,4034495,3.8666666666666663,꽁시면관,Ggongshi Myeon Gwan,37.561363,126.98293999999999
restaurants,4034523,5.0,국시집,Gukshi Jip,37.59794,126.99744
restaurants,4034552,4.190476190476192,사발,Sabal,37.573532,126.97209
restaurants,4034616,3.5,원흥,Wonheung,37.56787,126.98203000000001
restaurants,4034727,4.333333333333333,함흥냉면,Hahmheung Naengmyeon,37.518982,126.90673999999999
restaurants,4034729,3.6666666666666665,티원,T1,37.519833,126.9401
restaurants,4034730,4.190476190476192,진고개,Jingogae,37.56301,126.99309
restaurants,4034777,4.5,캐빈,Kabin,37.503204,127.04161
restaurants,4034799,4.0,영동쭈꾸미,Yeongdong Jjuggumi,37.509803999999995,127.02304
restaurants,4034817,4.375,라면 땡기는 날,Ramyeon Ttaenggineun Nal,37.5793,126.98218999999999
restaurants,4034837,3.5384615384615383,썬더버거,Thunder Burger,37.537085999999995,126.98705
restaurants,4034848,4.5,백년토종삼계탕,Baeknyeon Tojong Samgyaetang,37.5538,126.91968999999999
restaurants,4034889,4.230769230769232,강촌쌈밥,Gangchon Ssambap,37.610764,126.97469
restaurants,4034927,3.888888888888889,하루,Haru,37.526783,127.03822
restaurants,4034959,4.363636363636363,영양센타,Yeongyang Center,37.561096,126.98313999999999
restaurants,4034961,3.7857142857142856,송스키친,Song's Kitchen,37.60067,126.96025
restaurants,4034971,4.0,스페인클럽,Spain Club,37.521805,127.022026
restaurants,4035021,4.225806451612904,조박집,Jobahkjip,37.540115,126.94382
restaurants,4035069,4.285714285714286,트라토리아 몰토,Trattoria Molto,37.57638,126.89463
restaurants,4035194,4.4344262295081975,아리아,Aria,37.564125,126.9798
restaurants,4035220,4.0,길들여지기,Gil Deulyeo Jigi,37.56599,126.97282
restaurants,4035224,4.333333333333333,남포면옥,Nampo Myeon Ok,37.51567,127.03461000000001
restaurants,4049658,4.0588235294117645,아비꼬 이대점,Abiko Edae,37.558113,126.94608999999998
restaurants,4049707,4.352941176470588,봉래헌,Bongraeheon,37.547607,126.8185
restaurants,4049717,4.5,버거킹 방배점,Burger King Bangbae,37.48298,126.99699
restaurants,4049719,3.9,버거킹,Burger King,37.569912,126.98806
restaurants,4049721,4.333333333333333,버거킹 수서점,Burger King Suseo,37.487359999999995,127.103
restaurants,4049731,4.057142857142857,캘리포니아피자키친 강남점,California Pizza Kitchen Gangnam,37.503456,127.02443000000001
restaurants,4049737,5.0,천산,Cheonsan,37.51417,127.03651
restaurants,4049876,4.333333333333333,그랑 아 II,Gran A II,37.505234,127.02888
restaurants,4049877,4.0,귀천,Gwicheon,37.574745,126.98488
restaurants,4049914,4.666666666666667,한솥도시락 보라매삼성점,Hansot Doshirak Boramae Samseong,37.492344,126.92348500000001
restaurants,4050006,4.428571428571429,홍연,Hongyeon,37.564484,126.98008999999999
restaurants,4050034,5.0,이끼 이대점,Ikki Ewha Woman University Restaurant,37.557970000000005,126.94601000000002
restaurants,4050037,4.285714285714286,인사동그집,Insadong Geu Jib,37.574364,126.98468999999999
restaurants,4050043,3.0,이태원맛집 맨하탄,Itaewon Matjib Manhattan,37.534138,126.9954
restaurants,4050054,4.0,전주유할머니비빔밥,Jeonju Yuhalmeoni Bibimbap,37.562855,126.97835
restaurants,4050088,3.0,KFC 신당역점,KFC Sindang Station,37.566134999999996,127.01615
restaurants,4050093,3.0,KFC 서초점,KFC Seocho,37.48502,127.01499
restaurants,4050113,4.0,만리성,Manrisung,37.581387,127.004005
restaurants,4050121,4.153846153846153,마켓오 압구정점,Market O Apgujeong,37.522040000000004,127.03531000000001
restaurants,4050130,4.133333333333334,맥도날드 신촌점,McDonald's Sinchon,37.55535,126.93699
restaurants,4050159,3.75,미스터피자 한양대점,Mister Pizza Hanyangdae,37.556976,127.04236000000002
restaurants,4050175,3.6,낙원아구찜,Nagwon Agujjim,37.573634999999996,126.98801
restaurants,4050193,4.0,놀부부대찌개 강남씨티점,Nolbu Budaejjigae Gangnam City,37.500820000000004,127.02713999999999
restaurants,4050259,3.6428571428571432,파파이스 충무로점,Popeyes Chungmuro,37.56171,126.99453999999999
restaurants,4050275,4.125,살람,Salam,37.53326,126.99753999999999
restaurants,4050276,3.75,사가라멘 대학로점,Saga Ramen Daehangno,37.5823,127.00096
restaurants,4050284,5.0,삼김 여의도역점,Samkim Yeouidoyeok,37.520477,126.92401000000001
restaurants,4050300,3.8,신포우리만두 동대문점,Sinpo Uri Mandu Dongdaemun,37.567657000000004,127.00773999999998
restaurants,4050342,3.782608695652174,타이 가든,Thai Garden,37.535126,126.99869
restaurants,4050395,4.0,베로나,Verona,37.51401,127.0359
restaurants,4050413,4.0,용우동 서울역점,Yongudong Seoul Station,37.554123,126.97228
restaurants,4069174,4.333333333333333,아성중화요리,Asung Joonghwa Yoori,37.516059999999996,127.01451999999999
restaurants,4069200,4.066666666666666,백제정육점,Baekjae Jeongyukjeom,37.57268,127.004074
restaurants,4069437,3.466666666666667,두르가 본점,Durga Main,37.570827,126.97985
restaurants,4069449,4.1,앵콜칼국수,Encore Kalgooksoo,37.481365000000004,127.01338
restaurants,4069461,4.0,에도긴,Edogin,37.496895,127.03176
restaurants,4069573,5.0,골방집,Golbangjip,37.634304,127.03693999999999
restaurants,4070025,4.0,놀부수산,Nolboo Soosan,37.4887,126.96247
restaurants,4070152,5.0,파낙스,Panax,37.51993,126.92908999999999
restaurants,4070257,3.0,피자헛 여의도아이비점,Pizza Hut Yeouido Ivy,37.52083,126.93128
restaurants,4070283,4.0,래향,Raehyang,37.503956,127.12718999999998
restaurants,4070294,5.0,사바사바치킨&비어 문래점,Sabasaba Chicken & Beer Mullae,37.5228,126.88492
restaurants,4070314,3.0,사조참치 남대문점,Sajo Chamchi Namdaemun,37.561268,126.97646999999999
restaurants,4070334,4.0,서우샤브샤브,Seou Shabu Shabu,37.653667,127.05091999999999
restaurants,4070488,3.0,와라와라 사당본점,Warawara Sadang Main,37.477996999999995,126.9832
restaurants,4070489,4.0,웰빙92하우스,Wellbeing 92 House,37.554367,126.9373
restaurants,4070510,4.0,용수산 서초점,Yongsoosan Seocho,37.5008,126.99978
restaurants,4070514,4.0,요리왕,Yoriwang,37.503445,126.98828
restaurants,4070520,4.0,유락반점,Yurak Banjeom,37.564341999999996,127.01766
restaurants,4070523,3.8,아비꼬 동대문두산타워점,Abiko Dongdaemun Doosan Tower,37.564644,126.9833
restaurants,4070525,4.25,아카사카,Akasaka,37.495598,127.02708
restaurants,4070584,4.333333333333333,버거킹 동국대점,Burger King Dongguk University,37.558475,127.0004
restaurants,4070591,3.9,버거킹 목동현대점,Burger King Mokdong Hyundai,37.5265,126.87516000000001
restaurants,4070592,3.571428571428572,버거킹 강남교보점,Burger King Gangnam Kyobo,37.504513,127.02358000000001
restaurants,4070593,3.6,버거킹 남부 터미널점,Burger King Nambu Bus Terminal,37.484615000000005,127.01572
restaurants,4070595,4.6,버거킹 여의도점,Burger King Yeouido,37.520477,126.92401000000001
restaurants,4070598,2.5,버거킹 올림픽상가점,Burger King Olympic Sangga,37.515667,127.13162
restaurants,4070599,4.0,버거킹 고려대점,Burger King Korea University,37.58809,127.02078
restaurants,4070600,4.4,버거킹 건대역점,Burger King Konkuk University Station,37.53859,127.07263999999999
restaurants,4070608,4.0,병천황토방순대 여의도점,Byeongcheon Hwangtobang Sundae Yeouido,37.529509999999995,126.92125
restaurants,4070646,4.8,다미,Dami,37.52128,126.93273
restaurants,4070652,5.0,독도참치전복 여의도점,Dokdo Chamchi&Jeonbok,37.52293,126.92481000000001
restaurants,4070654,4.0,돌고래2004,Dolgorae 2004,37.563828,126.98364
restaurants,4070667,4.25,동해도,Donghaedo,37.528620000000004,126.92146000000001
restaurants,4070705,3.873015873015873,강가 무교점,Gangga Mugyo,37.56836,126.9778
restaurants,4070737,4.4444444444444455,그릭조이,Greek Joy,37.552444,126.92313
restaurants,4070747,4.375,광양불고기,Gwangyang Bulgogi,37.509116999999996,127.055
restaurants,4070750,4.0,구로 구로 디지털점,Guro Guro Digital,37.483833000000004,126.9011
restaurants,4070753,4.0,한동길감자탕 문래점,Handonggil Gamjatang Mullae,37.520226,126.89021000000001
restaurants,4070764,4.0,한우촌,Hanuchon,37.550533,126.95336
restaurants,4070815,4.285714285714286,임실치즈피자 신도림점,Imsil Cheese Pizza Sindorim,37.50728,126.88628999999999
restaurants,4070849,4.5,조개일번지,Jogaeilbeonji,37.612087,127.03218999999999
restaurants,4070870,4.0,꽃지,Kkotji,37.514540000000004,127.06171
restaurants,4070876,4.0,코이누르,Kohinoor,37.51963,126.93008
restaurants,4070952,4.142857142857143,엔그릴,N Grill,37.551277,126.98834
restaurants,4070954,4.117647058823529,나마스테 동묘 본점,Namaste Dongmyo,37.571728,127.01597
restaurants,4070967,4.611111111111111,네네치킨 이대점,Nene Chicken Ewha Womans University,37.556217,126.94206000000001
restaurants,4070976,5.0,아웃백스테이크하우스 어린이대공원점,Outback Steakhouse Children's Grand Park,37.538486,127.0823
restaurants,4071028,4.103448275862069,프리모바치오바치,Primo Bacio Baci,37.554787,126.923584
restaurants,4071048,4.434782608695652,삼원가든 대치점,Samwon Garden Daechi,37.524982,127.03283
restaurants,4071058,3.615384615384616,세븐스프링스 광화문점,Seven Springs Gwanghwamun,37.569675,126.97228
